,CityState,University,Uni CityState,Distance,Closest,City,City Lat,City Lng,Distance_Text,State,Time,Time_Text,Uni Lat,Uni Lng,Population,White Population,Black Population,Native American Population,Asian Population,Hispanic Population,Education None,Education High School,Education GED,Education Associates,Education Bachelors,Education Masters,Education Professional,Education Doctorate,Poverty,Employment Labor Force,Employment Unemployed,Employment Male Computer Engineering,Employment Female Computer Engineering,Median Age,Median Male Age,Median Female Age,Household Income,Income Per Capita,Median Gross Rent,Median Home Value,Impressions,CPC,CTR,Cost
1,"ABBEVILLE, AL",GTECH,"ATLANTA, GA",157.537625606406,1,ABBEVILLE,31.595148,-85.208852,184 mi,AL,11089.0,3 hours 5 mins,33.7756178,-84.396285,6470.0,4064.0,2274.0,0.0,0.0,96.0,66.0,1414.0,306.0,294.0,346.0,190.0,34.0,14.0,1363.0,2434.0,222.0,68.0,7.0,50.1,45.3,52.4,33944.0,20104.0,516.0,78100.0,0.23,2.45,0.04,0.02
2,"ABBEVILLE, GA",GTECH,"SAVANNAH, GA",131.676818199077,1,ABBEVILLE,31.976256,-83.339665,155 mi,GA,9231.0,2 hours 34 mins,32.0835,-81.0998,4719.0,2676.0,1903.0,0.0,41.0,89.0,55.0,1059.0,798.0,96.0,181.0,63.0,0.0,0.0,689.0,987.0,58.0,40.0,0.0,39.3,38.2,45.8,29200.0,10071.0,435.0,58400.0,,,,
5,"ABBEVILLE, SC",GTECH,"ATLANTA, GA",116.574634491178,1,ABBEVILLE,34.182407,-82.425607,146 mi,SC,9410.0,2 hours 37 mins,33.7756178,-84.396285,13005.0,8475.0,4410.0,6.0,0.0,108.0,97.0,2867.0,519.0,660.0,752.0,228.0,80.0,16.0,3382.0,5217.0,579.0,47.0,22.0,43.0,40.1,44.9,32423.0,17810.0,488.0,94900.0,0.23,13.23,0.042,0.13
59,"ACWORTH, GA",GTECH,"ATLANTA, GA",25.7768582055182,1,ACWORTH,34.0723555,-84.669353,29.5 mi,GA,3498.0,58 mins,33.7756178,-84.396285,94660.0,73829.0,13420.0,510.0,2076.0,8843.0,479.0,12386.0,2634.0,4584.0,14169.0,5042.0,877.0,500.0,9444.0,50946.0,4608.0,2552.0,662.0,36.75,36.0,37.75,68384.5,29153.0,1025.0,167450.0,11.6,16.77,0.033,6.25
70,"ADAIRSVILLE, GA",GTECH,"ATLANTA, GA",50.5133923758303,1,ADAIRSVILLE,34.366336,-84.917546,58.0 mi,GA,4959.0,1 hour 23 mins,33.7756178,-84.396285,16358.0,14266.0,1508.0,118.0,77.0,694.0,241.0,2882.0,841.0,964.0,932.0,171.0,104.0,70.0,2752.0,7678.0,703.0,160.0,0.0,36.5,38.2,35.8,47106.0,19809.0,753.0,110800.0,1.14,57.82,0.045,2.88
74,"ADAMS RUN, SC",GTECH,"SAVANNAH, GA",65.0676259318427,1,ADAMS RUN,32.797192,-80.370638,85.6 mi,SC,5150.0,1 hour 26 mins,32.0835,-81.0998,1426.0,615.0,776.0,35.0,0.0,11.0,60.0,390.0,39.0,38.0,105.0,44.0,9.0,0.0,500.0,716.0,71.0,0.0,0.0,50.0,45.6,51.3,31515.0,21656.0,864.0,122300.0,,,,
88,"ADAMSVILLE, AL",GTECH,"ATLANTA, GA",150.558337494208,1,ADAMSVILLE,33.59595,-87.000649,166 mi,AL,9751.0,2 hours 43 mins,33.7756178,-84.396285,7687.0,4426.0,2797.0,2.0,21.0,487.0,62.0,1586.0,383.0,342.0,451.0,210.0,13.0,60.0,1830.0,3427.0,481.0,29.0,9.0,40.0,34.8,46.6,42949.0,20505.0,795.0,91700.0,,,,
106,"ADEL, GA",GTECH,"ATLANTA, GA",191.603949340176,1,ADEL,31.117296,-83.434236,207 mi,GA,10934.0,3 hours 2 mins,33.7756178,-84.396285,10227.0,7234.0,2891.0,34.0,0.0,580.0,145.0,2348.0,246.0,415.0,670.0,248.0,118.0,49.0,2292.0,4631.0,276.0,70.0,0.0,38.1,35.9,38.8,39759.0,21175.0,681.0,105800.0,,,,
113,"ADGER, AL",GTECH,"ATLANTA, GA",164.067767450233,1,ADGER,33.422765,-87.20973,183 mi,AL,10908.0,3 hours 2 mins,33.7756178,-84.396285,3201.0,3039.0,134.0,16.0,0.0,18.0,0.0,760.0,196.0,226.0,149.0,54.0,0.0,19.0,383.0,1348.0,144.0,6.0,7.0,42.8,40.2,48.0,44663.0,20080.0,705.0,86500.0,,,,
120,"ADRIAN, GA",GTECH,"SAVANNAH, GA",93.3175158482366,1,ADRIAN,32.554049,-82.595322,102 mi,GA,5628.0,1 hour 34 mins,32.0835,-81.0998,2639.0,2291.0,312.0,0.0,0.0,8.0,31.0,626.0,158.0,116.0,84.0,23.0,2.0,8.0,511.0,1179.0,127.0,6.0,5.0,43.7,42.6,46.5,42300.0,24577.0,445.0,66100.0,,,,
159,"AIKEN, SC",GTECH,"SAVANNAH, GA",108.368825163818,1,AIKEN,33.575638,-81.6879773333333,126 mi,SC,8718.0,2 hours 25 mins,32.0835,-81.0998,70106.0,47674.0,19292.0,161.0,797.0,2232.0,463.0,11456.0,2072.0,3491.0,9633.0,4934.0,898.0,920.0,10013.0,32270.0,2802.0,1881.0,645.0,43.5,42.6333333333333,44.1,52874.6666666667,27581.6666666667,724.333333333333,138800.0,3.68,11.93,0.029,1.26
160,"AILEY, GA",GTECH,"SAVANNAH, GA",83.1963751627719,1,AILEY,32.188589,-82.51347,96.3 mi,GA,5727.0,1 hour 35 mins,32.0835,-81.0998,1879.0,1368.0,468.0,7.0,0.0,177.0,20.0,416.0,53.0,95.0,120.0,75.0,39.0,5.0,417.0,790.0,46.0,8.0,3.0,42.2,41.1,42.8,43158.0,21020.0,713.0,93700.0,,,,
170,"AKRON, AL",GTECH,"ATLANTA, GA",204.216125952507,1,AKRON,32.852762,-87.750329,,AL,,,33.7756178,-84.396285,1067.0,526.0,541.0,0.0,0.0,0.0,23.0,280.0,41.0,34.0,95.0,24.0,0.0,6.0,256.0,429.0,18.0,6.0,0.0,42.3,40.8,43.9,32955.0,20493.0,611.0,105400.0,,,,
179,"ALABASTER, AL",GTECH,"ATLANTA, GA",143.927284496548,1,ALABASTER,33.215623,-86.797656,166 mi,AL,9164.0,2 hours 33 mins,33.7756178,-84.396285,26499.0,19814.0,3473.0,15.0,91.0,3628.0,191.0,3872.0,606.0,1495.0,3271.0,1323.0,192.0,107.0,3320.0,13469.0,715.0,615.0,118.0,36.2,36.2,36.2,65649.0,24701.0,931.0,157400.0,0.92,11.08,0.052,0.52
185,"ALAMO, GA",GTECH,"SAVANNAH, GA",99.4298886762656,1,ALAMO,32.128124,-82.79438,120 mi,GA,6881.0,1 hour 55 mins,32.0835,-81.0998,5221.0,2549.0,2672.0,0.0,0.0,165.0,0.0,1213.0,1045.0,272.0,83.0,49.0,12.0,0.0,382.0,631.0,33.0,0.0,0.0,37.3,36.1,47.2,30469.0,5328.0,502.0,51000.0,0.23,16.63,0.036,0.13
195,"ALAPAHA, GA",GTECH,"SAVANNAH, GA",132.440156616825,1,ALAPAHA,31.378501,-83.192225,180 mi,GA,11036.0,3 hours 4 mins,32.0835,-81.0998,2221.0,1482.0,532.0,13.0,6.0,182.0,14.0,489.0,48.0,196.0,51.0,40.0,2.0,0.0,456.0,814.0,63.0,34.0,0.0,35.9,35.2,36.6,38814.0,17194.0,425.0,74000.0,,,,
200,"ALBANY, GA",GTECH,"ATLANTA, GA",154.207578310304,1,ALBANY,31.545441,-84.177513,190 mi,GA,10748.0,2 hours 59 mins,33.7756178,-84.396285,100118.0,33074.0,63673.0,111.0,729.0,2826.0,1012.0,15388.0,3269.0,4091.0,7027.0,3126.0,1062.0,647.0,28621.0,45177.0,7866.0,695.0,279.0,34.85,33.3,36.475,35947.0,20016.75,717.75,104225.0,5.69,8.89,0.031,1.52
219,"ALBERTA, AL",GTECH,"ATLANTA, GA",204.329196059837,1,ALBERTA,32.158196,-87.344594,,AL,,,33.7756178,-84.396285,731.0,28.0,703.0,0.0,0.0,0.0,11.0,83.0,0.0,28.0,40.0,6.0,4.0,0.0,442.0,87.0,16.0,0.0,0.0,42.4,27.6,54.2,16406.0,7970.0,738.0,55900.0,,,,
226,"ALBERTVILLE, AL",GTECH,"ATLANTA, GA",110.135731834053,1,ALBERTVILLE,34.294424,-86.211697,142 mi,AL,10078.0,2 hours 48 mins,33.7756178,-84.396285,33168.0,29837.0,501.0,89.0,12.0,7574.0,941.0,5592.0,1556.0,1477.0,1567.0,541.0,133.0,51.0,8828.0,14141.0,923.0,220.0,38.0,35.9,35.1,36.7,32565.5,18567.0,621.0,100800.0,1.61,10.09,0.053,0.85
254,"ALCOLU, SC",GTECH,"SAVANNAH, GA",129.106886455006,1,ALCOLU,33.786644,-80.174065,141 mi,SC,7618.0,2 hours 7 mins,32.0835,-81.0998,1959.0,947.0,835.0,8.0,23.0,165.0,35.0,374.0,47.0,119.0,98.0,33.0,11.0,0.0,444.0,804.0,179.0,0.0,0.0,43.8,48.0,39.0,35238.0,18845.0,428.0,80800.0,,,,
275,"ALEXANDER CITY, AL",GTECH,"ATLANTA, GA",107.154725978376,1,ALEXANDER CITY,32.916719,-85.940589,136 mi,AL,8384.0,2 hours 20 mins,33.7756178,-84.396285,21153.0,13220.0,7125.0,85.0,11.0,1004.0,252.0,3813.0,789.0,1152.0,1619.0,473.0,153.0,76.0,5211.0,8878.0,939.0,159.0,120.0,40.0,41.5,39.6,33761.0,19295.0,572.0,98300.0,0.23,0.83,0.081,0.02
285,"ALEXANDRIA, AL",GTECH,"ATLANTA, GA",86.6178296046052,1,ALEXANDRIA,33.765322,-85.901096,103 mi,AL,6500.0,1 hour 48 mins,33.7756178,-84.396285,4770.0,4521.0,249.0,0.0,0.0,65.0,0.0,838.0,206.0,570.0,496.0,82.0,66.0,14.0,529.0,2386.0,293.0,15.0,33.0,40.2,40.9,39.2,54375.0,24341.0,680.0,120500.0,,,,
315,"ALICEVILLE, AL",GTECH,"ATLANTA, GA",225.155127325687,1,ALICEVILLE,33.077211,-88.202696,,AL,,,33.7756178,-84.396285,5515.0,1118.0,4231.0,0.0,12.0,196.0,183.0,1290.0,102.0,204.0,297.0,57.0,0.0,4.0,1815.0,1861.0,345.0,27.0,4.0,38.6,31.6,41.2,22202.0,12790.0,469.0,79800.0,,,,
344,"ALLENDALE, SC",GTECH,"SAVANNAH, GA",64.3005160523698,1,ALLENDALE,32.986368,-81.37811,76.5 mi,SC,5193.0,1 hour 27 mins,32.0835,-81.0998,4666.0,652.0,3891.0,0.0,0.0,123.0,0.0,1032.0,95.0,196.0,362.0,63.0,0.0,0.0,1398.0,2133.0,616.0,0.0,0.0,37.3,32.5,44.3,22737.0,12764.0,529.0,58400.0,,,,
345,"ALLENHURST, GA",GTECH,"SAVANNAH, GA",37.3933878998048,1,ALLENHURST,31.750629,-81.60235,46.8 mi,GA,3666.0,1 hour 1 min,32.0835,-81.0998,4432.0,1626.0,2393.0,23.0,9.0,397.0,0.0,587.0,214.0,164.0,259.0,110.0,22.0,19.0,920.0,2074.0,287.0,6.0,33.0,26.8,26.7,26.8,41230.0,20074.0,727.0,117800.0,,,,
353,"ALLENTOWN, GA",GTECH,"ATLANTA, GA",105.822243275243,1,ALLENTOWN,32.606281,-83.212516,120 mi,GA,6957.0,1 hour 56 mins,33.7756178,-84.396285,154.0,127.0,27.0,0.0,0.0,0.0,0.0,55.0,3.0,8.0,12.0,11.0,4.0,2.0,32.0,59.0,8.0,0.0,0.0,52.0,49.8,55.1,29625.0,18507.0,,67900.0,,,,
363,"ALLGOOD, AL",GTECH,"ATLANTA, GA",122.323334982272,1,ALLGOOD,33.902168,-86.517777,155 mi,AL,9499.0,2 hours 38 mins,33.7756178,-84.396285,54.0,54.0,0.0,0.0,0.0,54.0,0.0,0.0,0.0,0.0,0.0,0.0,0.0,0.0,44.0,10.0,0.0,0.0,0.0,46.5,46.5,,,,,,,,,
382,"ALMA, GA",GTECH,"SAVANNAH, GA",87.163229446914,1,ALMA,31.545485,-82.440693,112 mi,GA,7419.0,2 hours 4 mins,32.0835,-81.0998,10335.0,7853.0,1672.0,0.0,137.0,855.0,94.0,2213.0,433.0,509.0,514.0,245.0,45.0,26.0,1758.0,4457.0,197.0,74.0,11.0,36.6,34.7,38.0,38117.0,18480.0,584.0,63700.0,0.23,9.95,0.024,0.05
397,"ALMOND, NC",GTECH,"ATLANTA, GA",121.065709619054,1,ALMOND,35.405602,-83.605242,161 mi,NC,10982.0,3 hours 3 mins,33.7756178,-84.396285,669.0,669.0,0.0,0.0,0.0,0.0,0.0,106.0,13.0,0.0,118.0,8.0,17.0,0.0,130.0,279.0,11.0,0.0,0.0,45.4,41.5,46.4,51518.0,31947.0,744.0,164100.0,,,,
414,"ALPHARETTA, GA",GTECH,"ATLANTA, GA",22.7057975172773,1,ALPHARETTA,34.0859035,-84.2635,24.9 mi,GA,4083.0,1 hour 8 mins,33.7756178,-84.396285,182149.0,127852.0,19115.0,462.0,27134.0,15409.0,668.0,12159.0,1306.0,8067.0,46720.0,19980.0,3788.0,2337.0,9629.0,95199.0,5432.0,8362.0,2540.0,37.5,36.325,39.05,95150.5,45076.5,1206.5,319875.0,4.78,15.53,0.039,2.79
415,"ALPINE, AL",GTECH,"ATLANTA, GA",111.443655755888,1,ALPINE,33.355851,-86.261678,123 mi,AL,7638.0,2 hours 7 mins,33.7756178,-84.396285,4035.0,2170.0,1829.0,10.0,6.0,13.0,12.0,976.0,182.0,221.0,256.0,107.0,38.0,5.0,496.0,1498.0,93.0,0.0,17.0,42.6,42.1,44.1,37835.0,20093.0,817.0,79700.0,,,,
432,"ALSTON, GA",GTECH,"SAVANNAH, GA",81.6005097286087,1,ALSTON,32.078922,-82.490792,98.7 mi,GA,5963.0,1 hour 39 mins,32.0835,-81.0998,84.0,71.0,5.0,0.0,8.0,0.0,0.0,15.0,1.0,5.0,0.0,3.0,1.0,0.0,13.0,42.0,1.0,0.0,0.0,39.6,45.5,38.7,,28095.0,,,,,,
455,"ALTO, GA",GTECH,"ATLANTA, GA",66.0903304718049,1,ALTO,34.444855,-83.570701,71.5 mi,GA,5708.0,1 hour 35 mins,33.7756178,-84.396285,8486.0,7390.0,710.0,0.0,106.0,1141.0,117.0,1515.0,653.0,349.0,341.0,241.0,62.0,49.0,1289.0,3130.0,238.0,15.0,48.0,38.5,38.2,38.6,35498.0,15214.0,598.0,99300.0,,,,
473,"ALTOONA, AL",GTECH,"ATLANTA, GA",111.65004669356,1,ALTOONA,34.052385,-86.310738,142 mi,AL,9564.0,2 hours 39 mins,33.7756178,-84.396285,7185.0,6727.0,91.0,118.0,0.0,537.0,134.0,1412.0,353.0,396.0,340.0,104.0,3.0,5.0,1586.0,2954.0,218.0,24.0,2.0,42.6,39.6,45.7,35571.0,17637.0,551.0,77500.0,,,,
530,"AMBROSE, GA",GTECH,"SAVANNAH, GA",118.799040833396,1,AMBROSE,31.545696,-83.018356,141 mi,GA,10017.0,2 hours 47 mins,32.0835,-81.0998,2744.0,2502.0,181.0,5.0,0.0,139.0,2.0,550.0,111.0,195.0,219.0,72.0,7.0,47.0,519.0,1302.0,66.0,68.0,0.0,31.3,31.3,31.4,48889.0,22635.0,400.0,83200.0,,,,
542,"AMERICUS, GA",GTECH,"ATLANTA, GA",117.480008293242,1,AMERICUS,32.077554,-84.2169885,152 mi,GA,8993.0,2 hours 30 mins,33.7756178,-84.396285,25977.0,10154.0,14114.0,59.0,417.0,1404.0,529.0,4096.0,887.0,1080.0,1531.0,1002.0,362.0,290.0,8493.0,11096.0,1728.0,77.0,72.0,32.55,30.45,35.2,31612.0,16681.5,605.5,83400.0,1.36,13.35,0.047,0.84
600,"ANDALUSIA, AL",GTECH,"ATLANTA, GA",214.298538348389,1,ANDALUSIA,31.248565,-86.5360025,,AL,,,33.7756178,-84.396285,19708.0,16262.0,2967.0,79.0,90.0,288.0,190.0,3620.0,842.0,1311.0,1594.0,574.0,243.0,38.0,3651.0,8578.0,763.0,256.0,36.0,41.9,39.8,45.2,39673.0,23012.5,602.5,111400.0,0.92,4.84,0.053,0.23
607,"ANDERSON, SC",GTECH,"ATLANTA, GA",109.587265207959,1,ANDERSON,34.48962875,-82.6878945,118 mi,SC,7586.0,2 hours 6 mins,33.7756178,-84.396285,97114.0,70258.0,22925.0,358.0,1172.0,3737.0,1156.0,16535.0,3379.0,6763.0,8675.0,3641.0,794.0,613.0,17316.0,46210.0,4495.0,1309.0,240.0,40.925,39.5,42.325,38954.0,20926.25,688.5,119375.0,4.6,8.57,0.031,1.22
609,"ANDERSONVILLE, GA",GTECH,"ATLANTA, GA",110.28811217004,1,ANDERSONVILLE,32.190998,-84.13023,143 mi,GA,8461.0,2 hours 21 mins,33.7756178,-84.396285,937.0,718.0,207.0,0.0,0.0,138.0,1.0,143.0,24.0,90.0,77.0,31.0,0.0,0.0,243.0,528.0,97.0,0.0,0.0,46.4,48.7,45.9,34200.0,15192.0,,76000.0,,,,
627,"ANDREWS, NC",GTECH,"ATLANTA, GA",103.59525068999,1,ANDREWS,35.198079,-83.810349,132 mi,NC,8911.0,2 hours 29 mins,33.7756178,-84.396285,5462.0,4871.0,112.0,22.0,49.0,234.0,22.0,986.0,240.0,315.0,506.0,161.0,56.0,15.0,970.0,2303.0,249.0,16.0,3.0,43.8,45.5,41.6,29124.0,16129.0,557.0,104900.0,,,,
628,"ANDREWS, SC",GTECH,"SAVANNAH, GA",128.117250285596,1,ANDREWS,33.454312,-79.613121,175 mi,SC,10119.0,2 hours 49 mins,32.0835,-81.0998,11121.0,5772.0,5160.0,0.0,0.0,263.0,94.0,2609.0,312.0,409.0,489.0,135.0,20.0,0.0,3528.0,4651.0,510.0,42.0,42.0,37.0,31.0,41.8,33177.0,17419.0,654.0,78200.0,0.46,0.78,0.063,0.02
672,"ANNISTON, AL",GTECH,"ATLANTA, GA",80.9279897585127,1,ANNISTON,33.69503225,-85.798405,97.5 mi,AL,6446.0,1 hour 47 mins,33.7756178,-84.396285,51822.0,32167.0,17133.0,127.0,415.0,1802.0,565.0,8911.0,2122.0,2085.0,3623.0,1840.0,328.0,335.0,12692.0,22986.0,3278.0,406.0,112.0,42.1,41.4,43.125,43331.25,23361.75,636.75,139150.0,3.68,4.48,0.051,0.83
734,"APPLING, GA",GTECH,"ATLANTA, GA",121.37220466429,1,APPLING,33.601364,-82.299939,135 mi,GA,7735.0,2 hours 9 mins,33.7756178,-84.396285,5625.0,4085.0,1316.0,10.0,95.0,105.0,36.0,1119.0,137.0,278.0,781.0,205.0,124.0,6.0,907.0,2652.0,243.0,99.0,27.0,47.7,47.1,49.2,64125.0,27888.0,622.0,172700.0,0.68,2.92,0.05,0.1
743,"ARABI, GA",GTECH,"ATLANTA, GA",139.609580230678,1,ARABI,31.834992,-83.707348,153 mi,GA,8221.0,2 hours 17 mins,33.7756178,-84.396285,1024.0,859.0,149.0,0.0,16.0,0.0,29.0,283.0,66.0,56.0,73.0,16.0,16.0,5.0,209.0,521.0,91.0,0.0,0.0,51.2,52.2,50.3,46037.0,21419.0,517.0,68500.0,,,,
745,"ARAGON, GA",GTECH,"ATLANTA, GA",43.5849214667993,1,ARAGON,34.087138,-85.056489,56.7 mi,GA,5464.0,1 hour 31 mins,33.7756178,-84.396285,3687.0,3408.0,261.0,0.0,0.0,86.0,67.0,807.0,330.0,148.0,164.0,49.0,31.0,0.0,823.0,1713.0,98.0,16.0,15.0,44.0,41.7,46.7,38556.0,20023.0,749.0,87100.0,,,,
818,"ARGYLE, GA",GTECH,"SAVANNAH, GA",114.578902292272,1,ARGYLE,31.074434,-82.644004,143 mi,GA,8747.0,2 hours 26 mins,32.0835,-81.0998,77.0,36.0,41.0,0.0,0.0,0.0,0.0,8.0,0.0,3.0,5.0,2.0,0.0,0.0,13.0,39.0,10.0,0.0,0.0,52.2,53.4,38.5,38750.0,16318.0,,,,,,
830,"ARITON, AL",GTECH,"ATLANTA, GA",167.0860918998,1,ARITON,31.609777,-85.685655,190 mi,AL,11594.0,3 hours 13 mins,33.7756178,-84.396285,2723.0,2394.0,252.0,2.0,0.0,30.0,43.0,424.0,146.0,166.0,103.0,75.0,9.0,4.0,490.0,996.0,76.0,6.0,0.0,42.4,46.2,40.1,39063.0,19100.0,607.0,90500.0,,,,
846,"ARLINGTON, AL",GTECH,"ATLANTA, GA",217.836067219703,1,ARLINGTON,32.094921,-87.571497,,AL,,,33.7756178,-84.396285,409.0,169.0,240.0,0.0,0.0,0.0,0.0,103.0,16.0,32.0,21.0,0.0,0.0,0.0,133.0,169.0,70.0,0.0,0.0,31.4,25.6,58.2,22031.0,8591.0,,89200.0,,,,
849,"ARLINGTON, GA",GTECH,"ATLANTA, GA",162.972501545409,1,ARLINGTON,31.423156,-84.684305,193 mi,GA,11203.0,3 hours 7 mins,33.7756178,-84.396285,1936.0,584.0,1352.0,0.0,0.0,22.0,45.0,449.0,30.0,38.0,91.0,64.0,6.0,2.0,632.0,800.0,142.0,12.0,5.0,44.6,39.1,44.9,23497.0,22256.0,558.0,59600.0,,,,
883,"ARMUCHEE, GA",GTECH,"ATLANTA, GA",63.4860034595902,1,ARMUCHEE,34.432548,-85.172442,75.7 mi,GA,6241.0,1 hour 44 mins,33.7756178,-84.396285,2085.0,1996.0,8.0,0.0,0.0,0.0,11.0,419.0,123.0,92.0,199.0,44.0,16.0,0.0,46.0,1124.0,88.0,33.0,0.0,47.0,38.3,49.5,75000.0,33168.0,743.0,145200.0,,,,
896,"ARNOLDSVILLE, GA",GTECH,"ATLANTA, GA",66.4795766383576,1,ARNOLDSVILLE,33.855811,-83.244694,83.5 mi,GA,6274.0,1 hour 45 mins,33.7756178,-84.396285,1254.0,1103.0,39.0,1.0,0.0,104.0,97.0,208.0,66.0,51.0,125.0,122.0,13.0,6.0,166.0,708.0,5.0,35.0,1.0,39.6,37.2,43.5,42409.0,23118.0,813.0,162000.0,,,,
950,"ASHBURN, GA",GTECH,"ATLANTA, GA",147.420988725536,1,ASHBURN,31.72025,-83.693961,164 mi,GA,8847.0,2 hours 27 mins,33.7756178,-84.396285,5965.0,2715.0,3068.0,0.0,96.0,283.0,98.0,1309.0,212.0,267.0,221.0,43.0,78.0,17.0,1586.0,2438.0,333.0,25.0,11.0,37.9,35.4,45.2,29191.0,18299.0,585.0,73800.0,,,,
965,"ASHFORD, AL",GTECH,"ATLANTA, GA",186.07960267825,1,ASHFORD,31.170833,-85.236826,222 mi,AL,12736.0,3 hours 32 mins,33.7756178,-84.396285,6707.0,5585.0,849.0,31.0,27.0,69.0,61.0,1567.0,326.0,333.0,448.0,146.0,9.0,24.0,1145.0,2965.0,196.0,62.0,16.0,42.0,41.8,42.1,40456.0,20701.0,662.0,89000.0,0.23,12.81,0.021,0.06
973,"ASHLAND, AL",GTECH,"ATLANTA, GA",93.3709295224034,1,ASHLAND,33.222279,-85.872376,112 mi,AL,7464.0,2 hours 4 mins,33.7756178,-84.396285,5164.0,4226.0,640.0,40.0,0.0,217.0,25.0,960.0,208.0,376.0,189.0,91.0,32.0,27.0,1254.0,2109.0,180.0,13.0,0.0,43.0,43.1,42.8,27170.0,16884.0,430.0,82200.0,,,,
1010,"ASHVILLE, AL",GTECH,"ATLANTA, GA",105.529752265445,1,ASHVILLE,33.809618,-86.229742,136 mi,AL,8174.0,2 hours 16 mins,33.7756178,-84.396285,7066.0,5981.0,775.0,59.0,38.0,220.0,63.0,1370.0,305.0,433.0,350.0,104.0,0.0,24.0,1869.0,2715.0,197.0,40.0,22.0,38.5,41.2,36.1,37750.0,19342.0,620.0,87300.0,,,,
1042,"ATHENS, GA",GTECH,"ATLANTA, GA",59.6126954948994,1,ATHENS,33.9589873333333,-83.3830048333333,70.0 mi,GA,6013.0,1 hour 40 mins,33.7756178,-84.396285,120952.0,79691.0,31036.0,229.0,5350.0,12845.0,919.0,11318.0,2508.0,3693.0,12983.0,7695.0,1725.0,3606.0,40658.0,59334.0,5388.0,1781.0,1079.0,25.3166666666667,24.6,26.05,34224.25,13672.6666666667,769.0,143325.0,37.53,16.45,0.028,16.58
1067,"ATLANTA, GA",GTECH,"ATLANTA, GA",1.66719465711625,1,ATLANTA,33.7976118,-84.38422475,2.2 mi,GA,1057.0,18 mins,33.7756178,-84.396285,950416.0,424542.0,426685.0,4222.0,49200.0,97430.0,6481.0,102863.0,15021.0,33864.0,181339.0,86542.0,28694.0,14367.0,188146.0,524821.0,51908.0,26005.0,10710.0,33.0153846153846,32.8179487179487,33.3435897435898,55902.3243243243,36804.9487179487,1026.97297297297,260986.111111111,859.33,20.67,0.031,532.49
1091,"ATMORE, AL",GTECH,"ATLANTA, GA",256.009472768791,1,ATMORE,31.147733,-87.494821,,AL,,,33.7756178,-84.396285,18632.0,10059.0,6996.0,950.0,34.0,245.0,190.0,4011.0,1455.0,755.0,821.0,210.0,128.0,70.0,4100.0,6772.0,1070.0,97.0,3.0,38.9,38.0,39.7,31612.0,15644.0,557.0,99300.0,1.38,181.96,0.036,8.96
1095,"ATTALLA, AL",GTECH,"ATLANTA, GA",97.8585876211956,1,ATTALLA,34.089754,-86.057449,132 mi,AL,8949.0,2 hours 29 mins,33.7756178,-84.396285,11982.0,10406.0,1223.0,19.0,8.0,463.0,136.0,2486.0,590.0,726.0,497.0,289.0,52.0,16.0,2043.0,5277.0,592.0,24.0,12.0,41.9,41.3,44.0,37333.0,18603.0,619.0,75900.0,0.92,2.97,0.041,0.11
1096,"ATTAPULGUS, GA",GTECH,"ATLANTA, GA",209.320674598616,1,ATTAPULGUS,30.73885,-84.490698,,GA,,,33.7756178,-84.396285,2147.0,322.0,1611.0,15.0,0.0,249.0,31.0,419.0,64.0,75.0,55.0,18.0,18.0,4.0,914.0,637.0,35.0,0.0,0.0,32.4,21.5,38.0,22917.0,11655.0,673.0,69200.0,,,,
1123,"AUBURN UNIVERSITY, AL",GTECH,"ATLANTA, GA",102.632500613645,1,AUBURN UNIVERSITY,32.60242,-85.487341,113 mi,AL,7107.0,1 hour 58 mins,33.7756178,-84.396285,3539.0,3118.0,203.0,10.0,161.0,137.0,0.0,7.0,0.0,0.0,0.0,0.0,0.0,0.0,0.0,511.0,125.0,0.0,11.0,19.4,19.3,19.4,,2047.0,,,,,,
1124,"AUBURN, AL",GTECH,"ATLANTA, GA",106.749993761095,1,AUBURN,32.5609335,-85.5392915,119 mi,AL,6805.0,1 hour 53 mins,33.7756178,-84.396285,60814.0,41754.0,13250.0,67.0,4166.0,2669.0,186.0,3875.0,720.0,1755.0,8976.0,4452.0,985.0,2285.0,19136.0,31630.0,2165.0,1362.0,640.0,25.95,24.95,27.45,36586.5,24885.0,807.5,168150.0,8.96,7.91,0.041,2.87
1126,"AUBURN, GA",GTECH,"ATLANTA, GA",36.2770607220013,1,AUBURN,34.019859,-83.837163,39.8 mi,GA,4261.0,1 hour 11 mins,33.7756178,-84.396285,14600.0,11407.0,1986.0,166.0,556.0,1441.0,44.0,2639.0,839.0,737.0,1288.0,512.0,98.0,20.0,1985.0,7895.0,713.0,116.0,71.0,35.9,34.4,37.3,57063.0,22805.0,970.0,118600.0,2.73,19.55,0.046,2.4
1153,"AUGUSTA, GA",GTECH,"ATLANTA, GA",137.093568813219,1,AUGUSTA,33.45404275,-82.050006125,148 mi,GA,8300.0,2 hours 18 mins,33.7756178,-84.396285,203143.0,99304.0,91201.0,407.0,5235.0,8138.0,1416.0,32725.0,6877.0,10984.0,19559.0,7328.0,3104.0,2205.0,44172.0,96506.0,9582.0,2751.0,1034.0,32.9375,37.3125,32.05,47191.0,21770.75,831.666666666667,118100.0,27.98,13.86,0.037,13.82
1188,"AUSTELL, GA",GTECH,"ATLANTA, GA",12.4382554138507,1,AUSTELL,33.811276,-84.6081765,19.3 mi,GA,2362.0,39 mins,33.7756178,-84.396285,47157.0,15972.0,27501.0,54.0,398.0,8953.0,470.0,7515.0,1663.0,1901.0,4566.0,1746.0,228.0,270.0,11895.0,24828.0,2803.0,579.0,267.0,34.95,34.0,35.75,41878.0,20541.5,881.5,100650.0,10.01,17.6,0.039,6.72
1201,"AUTAUGAVILLE, AL",GTECH,"ATLANTA, GA",162.910152955187,1,AUTAUGAVILLE,32.451904,-86.723821,192 mi,AL,10925.0,3 hours 2 mins,33.7756178,-84.396285,1716.0,598.0,1082.0,0.0,0.0,17.0,51.0,417.0,56.0,107.0,80.0,39.0,0.0,3.0,426.0,780.0,105.0,27.0,0.0,44.6,40.9,48.0,24861.0,22347.0,581.0,52600.0,,,,
1220,"AVERA, GA",GTECH,"SAVANNAH, GA",111.249054279256,1,AVERA,33.133196,-82.549061,135 mi,GA,7940.0,2 hours 12 mins,32.0835,-81.0998,770.0,596.0,169.0,0.0,1.0,0.0,2.0,284.0,17.0,27.0,13.0,4.0,0.0,0.0,151.0,277.0,21.0,0.0,0.0,52.1,43.8,54.0,33750.0,16659.0,625.0,63800.0,,,,
1257,"AVONDALE ESTATES, GA",GTECH,"ATLANTA, GA",7.74973819954323,1,AVONDALE ESTATES,33.773335,-84.261667,13.1 mi,GA,2216.0,37 mins,33.7756178,-84.396285,5835.0,3313.0,1710.0,0.0,578.0,272.0,114.0,417.0,166.0,245.0,995.0,686.0,364.0,245.0,1134.0,3216.0,288.0,196.0,60.0,39.8,40.3,39.3,47386.0,38291.0,716.0,271700.0,1.59,4.23,0.025,0.16
1263,"AWENDAW, SC",GTECH,"SAVANNAH, GA",104.512589249797,1,AWENDAW,32.973563,-79.650117,135 mi,SC,10743.0,2 hours 59 mins,32.0835,-81.0998,2762.0,1380.0,1314.0,0.0,34.0,81.0,11.0,545.0,14.0,116.0,423.0,174.0,16.0,0.0,416.0,1414.0,67.0,24.0,35.0,48.4,42.1,49.6,50969.0,30305.0,728.0,268200.0,,,,
1264,"AXIS, AL",GTECH,"ATLANTA, GA",287.945705895616,1,AXIS,30.94195,-88.015792,,AL,,,33.7756178,-84.396285,1617.0,1018.0,508.0,0.0,75.0,0.0,12.0,306.0,19.0,42.0,114.0,74.0,0.0,0.0,194.0,746.0,49.0,0.0,19.0,42.6,40.5,42.9,42721.0,21465.0,1071.0,108000.0,,,,
1265,"AXSON, GA",GTECH,"SAVANNAH, GA",110.314140776256,1,AXSON,31.296189,-82.730338,149 mi,GA,9091.0,2 hours 32 mins,32.0835,-81.0998,1159.0,1059.0,47.0,14.0,0.0,142.0,16.0,246.0,81.0,40.0,27.0,20.0,0.0,5.0,182.0,523.0,38.0,14.0,5.0,41.1,38.0,41.5,49444.0,19524.0,490.0,81400.0,,,,
1292,"BACONTON, GA",GTECH,"ATLANTA, GA",167.29065386809,1,BACONTON,31.358537,-84.127936,200 mi,GA,11162.0,3 hours 6 mins,33.7756178,-84.396285,2723.0,1478.0,1098.0,14.0,3.0,92.0,16.0,636.0,86.0,164.0,77.0,37.0,0.0,0.0,714.0,1147.0,160.0,22.0,2.0,37.6,40.5,36.8,33485.0,14587.0,522.0,79500.0,,,,
1323,"BAINBRIDGE, GA",GTECH,"ATLANTA, GA",200.90401804582,1,BAINBRIDGE,30.866053,-84.618036,,GA,,,33.7756178,-84.396285,20820.0,10752.0,9020.0,55.0,86.0,939.0,289.0,3696.0,1113.0,989.0,1431.0,750.0,84.0,188.0,5257.0,8136.0,548.0,212.0,19.0,38.7,35.75,40.75,31632.0,18741.5,628.5,114550.0,1.82,9.09,0.05,0.81
1355,"BALDWIN, GA",GTECH,"ATLANTA, GA",69.8420308987747,1,BALDWIN,34.449698,-83.486672,82.3 mi,GA,6012.0,1 hour 40 mins,33.7756178,-84.396285,3722.0,3312.0,119.0,9.0,11.0,580.0,96.0,831.0,149.0,269.0,230.0,34.0,12.0,0.0,735.0,1657.0,136.0,9.0,19.0,34.1,35.1,34.0,43311.0,19030.0,632.0,141000.0,,,,
1370,"BALL GROUND, GA",GTECH,"ATLANTA, GA",38.7525836149428,1,BALL GROUND,34.336291,-84.345793,51.3 mi,GA,4935.0,1 hour 22 mins,33.7756178,-84.396285,13872.0,13180.0,99.0,0.0,133.0,524.0,24.0,2478.0,866.0,744.0,1395.0,558.0,202.0,53.0,1651.0,7058.0,459.0,195.0,58.0,40.0,38.9,40.2,62456.0,25649.0,889.0,172000.0,1.36,13.72,0.038,0.7
1390,"BAMBERG, SC",GTECH,"SAVANNAH, GA",79.900382116528,1,BAMBERG,33.241221,-81.023815,91.8 mi,SC,5839.0,1 hour 37 mins,32.0835,-81.0998,7152.0,2799.0,4274.0,10.0,20.0,99.0,89.0,1041.0,81.0,536.0,545.0,292.0,50.0,41.0,1475.0,2929.0,201.0,41.0,0.0,40.8,40.8,40.8,36217.0,17891.0,663.0,72100.0,,,,
1409,"BANKS, AL",GTECH,"ATLANTA, GA",151.137020759924,1,BANKS,31.888214,-85.7196,170 mi,AL,10026.0,2 hours 47 mins,33.7756178,-84.396285,1652.0,1083.0,507.0,0.0,38.0,7.0,0.0,481.0,13.0,61.0,49.0,67.0,8.0,0.0,341.0,766.0,116.0,10.0,6.0,43.1,41.5,43.8,32813.0,20708.0,608.0,83100.0,,,,
1413,"BANKSTON, AL",GTECH,"ATLANTA, GA",188.860109063507,1,BANKSTON,33.719014,-87.675988,220 mi,AL,12322.0,3 hours 25 mins,33.7756178,-84.396285,1264.0,1246.0,18.0,0.0,0.0,0.0,16.0,356.0,85.0,43.0,62.0,0.0,0.0,0.0,194.0,458.0,22.0,0.0,0.0,51.9,53.2,50.8,33654.0,22879.0,539.0,73900.0,,,,
1466,"BARNESVILLE, GA",GTECH,"ATLANTA, GA",52.0796814127831,1,BARNESVILLE,33.05605,-84.121042,67.5 mi,GA,4740.0,1 hour 19 mins,33.7756178,-84.396285,12813.0,7278.0,5019.0,40.0,114.0,94.0,108.0,2331.0,658.0,493.0,947.0,291.0,39.0,117.0,2642.0,5543.0,845.0,108.0,0.0,38.1,39.0,36.6,35787.0,18134.0,628.0,114500.0,0.68,44.52,0.049,1.45
1475,"BARNEY, GA",GTECH,"ATLANTA, GA",198.285172013241,1,BARNEY,30.992647,-83.533505,221 mi,GA,11694.0,3 hours 15 mins,33.7756178,-84.396285,1420.0,962.0,458.0,0.0,0.0,0.0,0.0,263.0,55.0,60.0,25.0,9.0,17.0,0.0,475.0,670.0,170.0,0.0,0.0,42.0,34.4,46.3,21250.0,14586.0,604.0,103800.0,,,,
1486,"BARNWELL, SC",GTECH,"SAVANNAH, GA",81.422781950807,1,BARNWELL,33.231937,-81.428404,97.1 mi,SC,6683.0,1 hour 51 mins,32.0835,-81.0998,11384.0,6046.0,4905.0,87.0,7.0,420.0,137.0,2383.0,219.0,809.0,694.0,156.0,10.0,26.0,2950.0,4975.0,620.0,126.0,37.0,38.7,38.3,39.4,35868.0,20146.0,653.0,80400.0,,,,
1531,"BARTOW, GA",GTECH,"SAVANNAH, GA",99.3465920963976,1,BARTOW,32.88898,-82.510648,117 mi,GA,6853.0,1 hour 54 mins,32.0835,-81.0998,1928.0,1151.0,765.0,0.0,6.0,0.0,44.0,458.0,65.0,140.0,133.0,52.0,0.0,0.0,326.0,798.0,86.0,0.0,3.0,45.1,42.8,47.4,,19299.0,665.0,56700.0,,,,
1533,"BARWICK, GA",GTECH,"SAVANNAH, GA",175.812576181936,1,BARWICK,30.878167,-83.724533,214 mi,GA,13883.0,3 hours 51 mins,32.0835,-81.0998,463.0,214.0,122.0,0.0,0.0,122.0,1.0,91.0,14.0,7.0,24.0,8.0,5.0,0.0,161.0,199.0,30.0,0.0,0.0,34.4,28.5,37.4,27434.0,16617.0,626.0,87600.0,,,,
1583,"BATH, SC",GTECH,"SAVANNAH, GA",107.499102542185,1,BATH,33.500764,-81.871584,125 mi,SC,8509.0,2 hours 22 mins,32.0835,-81.0998,1244.0,1038.0,29.0,0.0,0.0,194.0,0.0,250.0,108.0,41.0,22.0,0.0,0.0,0.0,594.0,458.0,84.0,0.0,0.0,34.9,32.8,36.0,19766.0,12251.0,659.0,66400.0,,,,
1603,"BAXLEY, GA",GTECH,"SAVANNAH, GA",76.3066597396133,1,BAXLEY,31.77705,-82.347726,91.8 mi,GA,6155.0,1 hour 43 mins,32.0835,-81.0998,16410.0,12556.0,3037.0,21.0,154.0,1696.0,167.0,3887.0,734.0,444.0,920.0,305.0,201.0,64.0,3348.0,6922.0,540.0,63.0,26.0,37.8,35.8,38.7,37100.0,19227.0,495.0,73900.0,,,,
1615,"BAY MINETTE, AL",GTECH,"ATLANTA, GA",280.541347593684,1,BAY MINETTE,30.858609,-87.742025,,AL,,,33.7756178,-84.396285,19760.0,15166.0,4165.0,101.0,20.0,380.0,97.0,3838.0,952.0,1509.0,1315.0,452.0,67.0,33.0,3149.0,8482.0,574.0,109.0,49.0,40.5,35.4,42.6,37664.0,19682.0,619.0,118900.0,,,,
1633,"BAYOU LA BATRE, AL",GTECH,"ATLANTA, GA",325.462069261112,1,BAYOU LA BATRE,30.39302,-88.270178,,AL,,,33.7756178,-84.396285,2192.0,1138.0,356.0,0.0,579.0,172.0,71.0,292.0,57.0,78.0,64.0,3.0,3.0,0.0,720.0,913.0,66.0,0.0,0.0,31.7,31.5,32.1,32857.0,14065.0,675.0,86500.0,,,,
1682,"BEATRICE, AL",GTECH,"ATLANTA, GA",213.883969535293,1,BEATRICE,31.76474,-87.195168,,AL,,,33.7756178,-84.396285,1177.0,217.0,952.0,0.0,8.0,0.0,15.0,343.0,21.0,71.0,61.0,32.0,2.0,0.0,453.0,502.0,143.0,0.0,0.0,35.8,30.1,47.6,25750.0,14231.0,550.0,51500.0,,,,
1690,"BEAUFORT, SC",GTECH,"SAVANNAH, GA",31.4692891587871,1,BEAUFORT,32.39726875,-80.70932525,39.2 mi,SC,3400.0,57 mins,32.0835,-81.0998,40466.0,25141.0,11654.0,103.0,388.0,4428.0,130.0,5091.0,790.0,2018.0,3482.0,1998.0,295.0,349.0,6601.0,20986.0,1645.0,172.0,70.0,25.85,25.025,26.775,63336.6666666667,19195.75,913.0,176600.0,4.37,10.11,0.03,1.32
1764,"BEECH ISLAND, SC",GTECH,"SAVANNAH, GA",104.504039335024,1,BEECH ISLAND,33.457043,-81.86071,121 mi,SC,8239.0,2 hours 17 mins,32.0835,-81.0998,8213.0,4694.0,2929.0,18.0,47.0,493.0,107.0,1591.0,656.0,452.0,395.0,144.0,16.0,0.0,2593.0,3881.0,486.0,30.0,6.0,40.1,34.4,46.5,31552.0,17746.0,547.0,74300.0,,,,
1825,"BELLAMY, AL",GTECH,"ATLANTA, GA",236.719739576717,1,BELLAMY,32.421636,-88.14733,,AL,,,33.7756178,-84.396285,524.0,60.0,464.0,0.0,0.0,0.0,0.0,137.0,30.0,21.0,9.0,0.0,0.0,0.0,282.0,91.0,0.0,0.0,0.0,50.6,61.0,48.0,21912.0,12873.0,,31700.0,,,,
1889,"BELLWOOD, AL",GTECH,"ATLANTA, GA",196.690715301995,1,BELLWOOD,31.178551,-85.793943,243 mi,AL,14148.0,3 hours 56 mins,33.7756178,-84.396285,256.0,84.0,172.0,0.0,0.0,0.0,0.0,43.0,0.0,46.0,14.0,0.0,0.0,0.0,110.0,90.0,21.0,0.0,0.0,44.2,12.3,44.5,36336.0,19343.0,,,,,,
2037,"BERLIN, GA",GTECH,"ATLANTA, GA",192.006026636067,1,BERLIN,31.067453,-83.622768,221 mi,GA,11767.0,3 hours 16 mins,33.7756178,-84.396285,409.0,322.0,66.0,0.0,0.0,21.0,8.0,114.0,14.0,19.0,22.0,0.0,6.0,0.0,70.0,143.0,10.0,0.0,0.0,41.6,41.1,42.7,32500.0,17465.0,534.0,65300.0,,,,
2063,"BERRY, AL",GTECH,"ATLANTA, GA",181.571460865599,1,BERRY,33.619425,-87.542714,208 mi,AL,12347.0,3 hours 26 mins,33.7756178,-84.396285,3719.0,3547.0,61.0,0.0,21.0,45.0,53.0,873.0,251.0,119.0,283.0,59.0,2.0,0.0,845.0,1529.0,131.0,7.0,3.0,42.2,44.0,41.3,35913.0,18799.0,359.0,71700.0,0.23,4.61,0.049,0.05
2086,"BESSEMER, AL",GTECH,"ATLANTA, GA",152.641254904767,1,BESSEMER,33.397702,-87.0038203333333,168 mi,AL,9449.0,2 hours 37 mins,33.7756178,-84.396285,72156.0,35278.0,33004.0,166.0,451.0,2477.0,301.0,14200.0,3071.0,4291.0,5460.0,2086.0,336.0,191.0,14230.0,31056.0,3400.0,779.0,224.0,39.9333333333333,37.6333333333333,42.3,44196.0,21207.6666666667,775.0,114900.0,3.45,9.38,0.037,1.17
2118,"BETHLEHEM, GA",GTECH,"ATLANTA, GA",38.1817794598193,1,BETHLEHEM,33.929472,-83.758422,45.4 mi,GA,4633.0,1 hour 17 mins,33.7756178,-84.396285,12460.0,10093.0,1451.0,0.0,218.0,1381.0,98.0,1754.0,722.0,994.0,1049.0,284.0,57.0,42.0,1718.0,6058.0,503.0,117.0,34.0,34.1,32.4,35.6,62593.0,21818.0,1035.0,124600.0,,,,
2232,"BILLINGSLEY, AL",GTECH,"ATLANTA, GA",155.582092005886,1,BILLINGSLEY,32.64656,-86.722096,199 mi,AL,11350.0,3 hours 9 mins,33.7756178,-84.396285,1439.0,1232.0,182.0,1.0,0.0,16.0,8.0,221.0,41.0,117.0,19.0,94.0,0.0,0.0,212.0,713.0,73.0,0.0,2.0,43.5,40.9,43.9,50568.0,23685.0,,151700.0,,,,
2263,"BIRMINGHAM, AL",GTECH,"ATLANTA, GA",139.819523184452,1,BIRMINGHAM,33.5051360666667,-86.8001744666667,152 mi,AL,8727.0,2 hours 25 mins,33.7756178,-84.396285,497450.0,251913.0,217799.0,909.0,11585.0,21189.0,2755.0,61317.0,10270.0,24047.0,78149.0,32190.0,13623.0,7324.0,92560.0,251629.0,21963.0,7818.0,3280.0,36.77,35.3566666666667,38.28,45750.3928571429,25761.8666666667,800.172413793103,166693.103448276,61.35,8.56,0.04,20.52
2276,"BISHOP, GA",GTECH,"ATLANTA, GA",52.0456953713772,1,BISHOP,33.791462,-83.492132,67.6 mi,GA,5036.0,1 hour 24 mins,33.7756178,-84.396285,5445.0,4936.0,354.0,0.0,93.0,281.0,2.0,584.0,74.0,289.0,707.0,436.0,136.0,123.0,565.0,2568.0,191.0,91.0,39.0,37.1,37.0,37.3,77234.0,29852.0,937.0,262000.0,,,,
2313,"BLACK, AL",GTECH,"ATLANTA, GA",206.288899920071,1,BLACK,31.018937,-85.772824,,AL,,,33.7756178,-84.396285,509.0,494.0,0.0,2.0,0.0,0.0,0.0,176.0,24.0,7.0,50.0,16.0,1.0,0.0,112.0,255.0,3.0,14.0,3.0,49.6,48.8,53.0,51607.0,28331.0,620.0,110700.0,,,,
2322,"BLACKSHEAR, GA",GTECH,"SAVANNAH, GA",86.379432311014,1,BLACKSHEAR,31.309373,-82.25325,118 mi,GA,6983.0,1 hour 56 mins,32.0835,-81.0998,14810.0,12730.0,1237.0,0.0,92.0,632.0,261.0,2920.0,689.0,585.0,730.0,425.0,133.0,138.0,3619.0,6204.0,592.0,55.0,32.0,38.7,35.9,40.1,39160.0,21408.0,546.0,99700.0,,,,
2330,"BLACKVILLE, SC",GTECH,"SAVANNAH, GA",89.2623171116821,1,BLACKVILLE,33.370534,-81.273172,99.9 mi,SC,7371.0,2 hours 3 mins,32.0835,-81.0998,4660.0,1361.0,2985.0,1.0,149.0,153.0,80.0,1026.0,89.0,242.0,280.0,72.0,0.0,0.0,1255.0,2045.0,337.0,9.0,0.0,40.0,39.2,40.7,31875.0,16927.0,539.0,63000.0,,,,
2358,"BLAIRSVILLE, GA",GTECH,"ATLANTA, GA",78.7572054575161,1,BLAIRSVILLE,34.85953,-83.960571,114 mi,GA,7947.0,2 hours 12 mins,33.7756178,-84.396285,18969.0,18400.0,90.0,50.0,154.0,586.0,36.0,4177.0,856.0,1465.0,1856.0,1249.0,163.0,108.0,2248.0,7287.0,623.0,76.0,114.0,54.8,53.5,56.8,40161.0,22589.0,591.0,187500.0,2.73,25.63,0.037,2.5
2361,"BLAKELY, GA",GTECH,"ATLANTA, GA",171.125814977692,1,BLAKELY,31.336246,-84.946067,199 mi,GA,11097.0,3 hours 5 mins,33.7756178,-84.396285,7972.0,3708.0,4114.0,0.0,20.0,168.0,65.0,1755.0,206.0,407.0,397.0,346.0,57.0,28.0,2034.0,3264.0,305.0,70.0,7.0,38.8,37.1,40.0,37341.0,19322.0,590.0,82800.0,,,,
2425,"BLOOMINGDALE, GA",GTECH,"SAVANNAH, GA",14.4312216752404,1,BLOOMINGDALE,32.121659,-81.341739,19.8 mi,GA,1696.0,28 mins,32.0835,-81.0998,9389.0,8587.0,600.0,0.0,27.0,269.0,35.0,2114.0,371.0,330.0,649.0,217.0,25.0,24.0,1045.0,4726.0,326.0,107.0,14.0,37.1,38.0,36.2,54986.0,23813.0,936.0,136600.0,,,,
2487,"BLUE RIDGE, GA",GTECH,"ATLANTA, GA",72.1822684686848,1,BLUE RIDGE,34.821043,-84.322383,96.0 mi,GA,7299.0,2 hours 2 mins,33.7756178,-84.396285,11102.0,10781.0,35.0,129.0,0.0,305.0,74.0,2601.0,617.0,610.0,729.0,284.0,129.0,91.0,2901.0,4474.0,464.0,110.0,23.0,50.7,50.8,50.7,33120.0,18409.0,649.0,165500.0,2.05,9.37,0.039,0.72
2514,"BLUFFTON, GA",GTECH,"ATLANTA, GA",160.138118457359,1,BLUFFTON,31.495163,-84.925018,191 mi,GA,10702.0,2 hours 58 mins,33.7756178,-84.396285,415.0,281.0,134.0,0.0,0.0,0.0,0.0,137.0,16.0,29.0,67.0,10.0,1.0,1.0,230.0,145.0,5.0,0.0,6.0,55.6,59.1,52.5,18750.0,13800.0,,71500.0,,,,
2518,"BLUFFTON, SC",GTECH,"SAVANNAH, GA",15.182197186228,1,BLUFFTON,32.214521,-80.89157,23.1 mi,SC,2247.0,37 mins,32.0835,-81.0998,37678.0,29894.0,3829.0,71.0,792.0,7671.0,427.0,5134.0,824.0,2287.0,5752.0,2277.0,407.0,192.0,3888.0,20488.0,1160.0,280.0,134.0,36.4,35.2,38.3,61864.0,30954.0,1149.0,233300.0,5.05,6.17,0.067,2.05
2526,"BLYTHE, GA",GTECH,"SAVANNAH, GA",104.127391390936,1,BLYTHE,33.279569,-82.191791,129 mi,GA,8076.0,2 hours 15 mins,32.0835,-81.0998,2779.0,2093.0,613.0,5.0,0.0,42.0,43.0,431.0,175.0,77.0,113.0,33.0,0.0,17.0,745.0,1013.0,155.0,13.0,0.0,37.3,39.0,35.4,31042.0,16459.0,647.0,89400.0,0.23,22.53,0.042,0.21
2532,"BOAZ, AL",GTECH,"ATLANTA, GA",105.537068819822,1,BOAZ,34.1711525,-86.1718235,142 mi,AL,9470.0,2 hours 38 mins,33.7756178,-84.396285,24905.0,23115.0,284.0,186.0,180.0,3598.0,462.0,3851.0,1010.0,1542.0,1498.0,666.0,158.0,26.0,4845.0,11136.0,961.0,110.0,38.0,36.75,34.6,37.75,42912.0,18645.0,647.0,99450.0,1.84,11.47,0.049,1.01
2547,"BOGART, GA",GTECH,"ATLANTA, GA",51.541816708919,1,BOGART,33.924456,-83.517926,59.4 mi,GA,5385.0,1 hour 30 mins,33.7756178,-84.396285,10027.0,7961.0,1333.0,1.0,506.0,562.0,90.0,1392.0,346.0,389.0,1376.0,784.0,281.0,213.0,1007.0,4997.0,348.0,217.0,92.0,40.8,38.9,42.0,59545.0,31677.0,948.0,186500.0,1.36,76.41,0.029,2.99
2572,"BOLIGEE, AL",GTECH,"ATLANTA, GA",220.192780869544,1,BOLIGEE,32.755279,-88.000762,,AL,,,33.7756178,-84.396285,1992.0,120.0,1865.0,7.0,0.0,0.0,15.0,617.0,55.0,40.0,43.0,28.0,18.0,0.0,1056.0,579.0,87.0,0.0,0.0,29.7,27.6,35.1,17676.0,12231.0,329.0,58600.0,,,,
2592,"BON AIR, AL",GTECH,"ATLANTA, GA",117.395203856066,1,BON AIR,33.264859,-86.336417,133 mi,AL,8254.0,2 hours 18 mins,33.7756178,-84.396285,61.0,61.0,0.0,0.0,0.0,0.0,0.0,18.0,9.0,0.0,0.0,4.0,0.0,0.0,22.0,18.0,0.0,0.0,0.0,28.6,31.5,28.1,26250.0,8057.0,,,,,,
2594,"BON SECOUR, AL",GTECH,"ATLANTA, GA",309.023898750777,1,BON SECOUR,30.315155,-87.747247,,AL,,,33.7756178,-84.396285,806.0,738.0,0.0,0.0,0.0,0.0,0.0,310.0,0.0,68.0,0.0,0.0,0.0,0.0,118.0,72.0,46.0,0.0,0.0,62.4,63.3,61.4,,11181.0,,86300.0,,,,
2596,"BONAIRE, GA",GTECH,"ATLANTA, GA",96.6719099413542,1,BONAIRE,32.544201,-83.597459,109 mi,GA,6864.0,1 hour 54 mins,33.7756178,-84.396285,17440.0,12343.0,4259.0,0.0,333.0,1123.0,69.0,2709.0,309.0,1382.0,1752.0,1055.0,160.0,51.0,2427.0,8643.0,698.0,540.0,114.0,35.8,37.0,35.1,67434.0,27456.0,955.0,150100.0,,,,
2621,"BONNEAU, SC",GTECH,"SAVANNAH, GA",108.718531556692,1,BONNEAU,33.278777,-79.882079,149 mi,SC,8940.0,2 hours 29 mins,32.0835,-81.0998,6731.0,5722.0,879.0,0.0,26.0,5.0,61.0,1679.0,289.0,341.0,279.0,95.0,20.0,0.0,1113.0,3183.0,330.0,126.0,38.0,40.4,39.9,40.6,51047.0,20469.0,729.0,112200.0,,,,
2673,"BOSTON, GA",GTECH,"SAVANNAH, GA",182.913346597023,1,BOSTON,30.778489,-83.796406,217 mi,GA,14152.0,3 hours 56 mins,32.0835,-81.0998,3243.0,1596.0,1548.0,0.0,0.0,154.0,35.0,881.0,91.0,88.0,216.0,85.0,13.0,8.0,718.0,1477.0,140.0,13.0,10.0,43.9,45.6,42.4,34840.0,17164.0,690.0,106100.0,,,,
2679,"BOSTWICK, GA",GTECH,"ATLANTA, GA",49.308358845516,1,BOSTWICK,33.726758,-83.541819,63.2 mi,GA,4774.0,1 hour 20 mins,33.7756178,-84.396285,250.0,82.0,135.0,0.0,0.0,33.0,2.0,51.0,1.0,0.0,12.0,29.0,4.0,0.0,35.0,139.0,12.0,0.0,0.0,45.2,46.2,38.3,,16550.0,,111100.0,,,,
2720,"BOWDON, GA",GTECH,"ATLANTA, GA",52.7073037256851,1,BOWDON,33.5317,-85.262996,67.8 mi,GA,4780.0,1 hour 20 mins,33.7756178,-84.396285,7508.0,6349.0,871.0,52.0,25.0,45.0,73.0,1765.0,499.0,179.0,314.0,231.0,101.0,33.0,1603.0,3587.0,408.0,29.0,6.0,44.6,44.5,44.6,38826.0,22439.0,654.0,94700.0,0.45,4.82,0.02,0.04
2725,"BOWERSVILLE, GA",GTECH,"ATLANTA, GA",88.7374550627041,1,BOWERSVILLE,34.380913,-83.030697,102 mi,GA,6649.0,1 hour 51 mins,33.7756178,-84.396285,1712.0,1313.0,366.0,0.0,0.0,7.0,32.0,412.0,92.0,85.0,57.0,23.0,22.0,0.0,230.0,736.0,13.0,2.0,0.0,40.8,40.8,41.0,32092.0,17955.0,724.0,69400.0,,,,
2741,"BOWMAN, GA",GTECH,"ATLANTA, GA",82.6339314794154,1,BOWMAN,34.186246,-83.044149,98.9 mi,GA,7066.0,1 hour 58 mins,33.7756178,-84.396285,3159.0,2515.0,508.0,0.0,32.0,107.0,33.0,858.0,227.0,41.0,191.0,54.0,13.0,0.0,616.0,1332.0,95.0,2.0,7.0,41.0,37.3,43.9,37591.0,17870.0,627.0,78800.0,,,,
2743,"BOWMAN, SC",GTECH,"SAVANNAH, GA",91.2265182732643,1,BOWMAN,33.348797,-80.639176,104 mi,SC,5584.0,1 hour 33 mins,32.0835,-81.0998,3410.0,1209.0,2060.0,23.0,0.0,99.0,56.0,939.0,146.0,231.0,272.0,159.0,0.0,0.0,618.0,1474.0,209.0,0.0,0.0,43.6,39.6,46.2,31033.0,16304.0,607.0,81600.0,,,,
2749,"BOX SPRINGS, GA",GTECH,"ATLANTA, GA",87.3369987821186,1,BOX SPRINGS,32.519338,-84.594755,129 mi,GA,7482.0,2 hours 5 mins,33.7756178,-84.396285,2313.0,1798.0,473.0,0.0,0.0,63.0,55.0,387.0,167.0,74.0,155.0,41.0,4.0,13.0,371.0,1061.0,96.0,4.0,12.0,49.8,47.9,51.1,39020.0,19688.0,665.0,101000.0,,,,
2764,"BOYKIN, AL",GTECH,"ATLANTA, GA",205.094539344337,1,BOYKIN,32.05363,-87.274538,,AL,,,33.7756178,-84.396285,61.0,0.0,61.0,0.0,0.0,0.0,20.0,11.0,0.0,10.0,15.0,0.0,0.0,0.0,36.0,0.0,0.0,0.0,0.0,60.5,,60.5,,11500.0,,63800.0,,,,
2847,"BRANCHVILLE, SC",GTECH,"SAVANNAH, GA",80.9057451097952,1,BRANCHVILLE,33.231512,-80.808866,95.6 mi,SC,5503.0,1 hour 32 mins,32.0835,-81.0998,3110.0,2176.0,868.0,6.0,3.0,0.0,26.0,735.0,191.0,195.0,251.0,111.0,6.0,0.0,498.0,1528.0,192.0,5.0,11.0,43.3,40.5,44.1,43269.0,18838.0,481.0,74700.0,,,,
2874,"BRANTLEY, AL",GTECH,"ATLANTA, GA",186.830171887267,1,BRANTLEY,31.594781,-86.301377,225 mi,AL,12800.0,3 hours 33 mins,33.7756178,-84.396285,2584.0,1840.0,668.0,44.0,15.0,0.0,24.0,591.0,77.0,147.0,201.0,76.0,5.0,5.0,404.0,1275.0,83.0,56.0,5.0,43.3,38.6,44.8,35556.0,24923.0,466.0,79900.0,,,,
2876,"BRASELTON, GA",GTECH,"ATLANTA, GA",42.2112289753536,1,BRASELTON,34.130358,-83.797204,46.4 mi,GA,4364.0,1 hour 13 mins,33.7756178,-84.396285,12423.0,11171.0,408.0,0.0,433.0,900.0,186.0,1720.0,419.0,706.0,1796.0,604.0,228.0,75.0,1437.0,6080.0,427.0,214.0,52.0,36.0,34.1,37.8,72629.0,31461.0,1091.0,181400.0,0.91,15.08,0.028,0.38
2880,"BRASSTOWN, NC",GTECH,"ATLANTA, GA",89.4862604430079,1,BRASSTOWN,35.022285,-83.959171,121 mi,NC,8583.0,2 hours 23 mins,33.7756178,-84.396285,1476.0,1454.0,6.0,0.0,0.0,33.0,0.0,292.0,90.0,92.0,177.0,12.0,6.0,39.0,318.0,595.0,135.0,0.0,29.0,46.1,45.6,47.8,40410.0,21623.0,638.0,163500.0,,,,
2911,"BREMEN, GA",GTECH,"ATLANTA, GA",42.6330098964035,1,BREMEN,33.744459,-85.135938,51.4 mi,GA,4110.0,1 hour 9 mins,33.7756178,-84.396285,12871.0,11523.0,899.0,20.0,99.0,214.0,139.0,2296.0,571.0,435.0,939.0,376.0,234.0,67.0,2844.0,5878.0,676.0,90.0,47.0,38.5,36.5,39.5,45058.0,22121.0,687.0,111800.0,0.45,2.38,0.045,0.05
2923,"BRENT, AL",GTECH,"ATLANTA, GA",176.662393550708,1,BRENT,32.911122,-87.271681,209 mi,AL,11807.0,3 hours 17 mins,33.7756178,-84.396285,4656.0,1836.0,2749.0,7.0,7.0,54.0,37.0,1112.0,476.0,90.0,208.0,37.0,0.0,0.0,493.0,1307.0,24.0,88.0,28.0,36.7,36.3,37.3,30670.0,10080.0,,73000.0,,,,
2942,"BREWTON, AL",GTECH,"ATLANTA, GA",239.514063877967,1,BREWTON,31.140984,-87.071111,,AL,,,33.7756178,-84.396285,15509.0,10220.0,4899.0,234.0,13.0,142.0,71.0,3519.0,756.0,773.0,1165.0,531.0,86.0,60.0,3705.0,6166.0,1038.0,55.0,21.0,43.2,42.3,43.7,33996.0,18145.0,554.0,91900.0,1.15,4.24,0.055,0.27
2995,"BRIERFIELD, AL",GTECH,"ATLANTA, GA",156.987655134306,1,BRIERFIELD,33.043682,-86.968442,188 mi,AL,11141.0,3 hours 6 mins,33.7756178,-84.396285,1426.0,1256.0,123.0,47.0,0.0,0.0,29.0,298.0,47.0,82.0,51.0,101.0,0.0,18.0,54.0,818.0,56.0,0.0,0.0,39.3,40.4,37.6,60455.0,19589.0,,,,,,
3031,"BRINSON, GA",GTECH,"ATLANTA, GA",197.058931455486,1,BRINSON,30.930767,-84.740763,232 mi,GA,13062.0,3 hours 38 mins,33.7756178,-84.396285,1772.0,1219.0,392.0,0.0,0.0,285.0,8.0,287.0,110.0,39.0,36.0,29.0,2.0,0.0,861.0,649.0,49.0,0.0,6.0,28.3,26.5,28.7,19926.0,12311.0,595.0,127400.0,,,,
3037,"BRISTOL, GA",GTECH,"SAVANNAH, GA",75.0034341548257,1,BRISTOL,31.512607,-82.185093,88.7 mi,GA,6588.0,1 hour 50 mins,32.0835,-81.0998,640.0,605.0,0.0,0.0,0.0,125.0,0.0,114.0,19.0,22.0,18.0,25.0,5.0,0.0,100.0,204.0,5.0,0.0,0.0,39.3,42.2,37.2,31786.0,15575.0,452.0,84600.0,,,,
3116,"BRONWOOD, GA",GTECH,"ATLANTA, GA",134.747409166211,1,BRONWOOD,31.820634,-84.348887,173 mi,GA,10051.0,2 hours 48 mins,33.7756178,-84.396285,438.0,137.0,298.0,0.0,0.0,3.0,39.0,46.0,6.0,9.0,13.0,23.0,6.0,33.0,185.0,123.0,21.0,1.0,2.0,50.6,50.8,48.0,21932.0,14846.0,610.0,97000.0,,,,
3117,"BRONWOOD, GA",GTECH,"SAVANNAH, GA",191.720252651636,1,BRONWOOD,31.820634,-84.348887,,GA,,,32.0835,-81.0998,438.0,137.0,298.0,0.0,0.0,3.0,39.0,46.0,6.0,9.0,13.0,23.0,6.0,33.0,185.0,123.0,21.0,1.0,2.0,50.6,50.8,48.0,21932.0,14846.0,610.0,97000.0,,,,
3143,"BROOKLET, GA",GTECH,"SAVANNAH, GA",33.8599940097961,1,BROOKLET,32.324484,-81.603497,42.7 mi,GA,2661.0,44 mins,32.0835,-81.0998,6054.0,5450.0,510.0,0.0,21.0,95.0,39.0,1175.0,403.0,346.0,592.0,225.0,37.0,40.0,1246.0,3186.0,415.0,30.0,19.0,41.0,39.7,42.3,50382.0,22522.0,770.0,118600.0,0.45,13.67,0.039,0.24
3162,"BROOKS, GA",GTECH,"ATLANTA, GA",35.31835091642,1,BROOKS,33.267427,-84.475138,41.9 mi,GA,4574.0,1 hour 16 mins,33.7756178,-84.396285,3184.0,3034.0,46.0,40.0,14.0,109.0,6.0,577.0,72.0,167.0,566.0,125.0,43.0,29.0,213.0,1459.0,71.0,91.0,17.0,45.9,47.2,44.7,81595.0,36469.0,808.0,222100.0,,,,
3167,"BROOKSIDE, AL",GTECH,"ATLANTA, GA",145.621679240983,1,BROOKSIDE,33.643922,-86.919599,165 mi,AL,9313.0,2 hours 35 mins,33.7756178,-84.396285,256.0,101.0,155.0,0.0,0.0,0.0,3.0,24.0,6.0,0.0,9.0,0.0,0.0,0.0,121.0,96.0,30.0,0.0,0.0,17.2,13.2,29.2,,9409.0,246.0,59400.0,,,,
3183,"BROOKWOOD, AL",GTECH,"ATLANTA, GA",169.955086349707,1,BROOKWOOD,33.328725,-87.292884,191 mi,AL,11072.0,3 hours 5 mins,33.7756178,-84.396285,4001.0,3584.0,347.0,13.0,8.0,61.0,42.0,888.0,141.0,179.0,303.0,77.0,8.0,0.0,559.0,1886.0,161.0,25.0,3.0,34.2,31.4,36.7,47956.0,20525.0,634.0,100000.0,0.23,12.39,0.025,0.07
3238,"BROXTON, GA",GTECH,"SAVANNAH, GA",108.155485273825,1,BROXTON,31.684697,-82.879186,127 mi,GA,8953.0,2 hours 29 mins,32.0835,-81.0998,3499.0,3057.0,402.0,0.0,17.0,371.0,5.0,787.0,161.0,228.0,158.0,66.0,32.0,0.0,624.0,1471.0,103.0,0.0,0.0,42.0,34.6,45.9,30529.0,17254.0,528.0,80400.0,,,,
3255,"BRUNDIDGE, AL",GTECH,"ATLANTA, GA",167.117279493671,1,BRUNDIDGE,31.659777,-85.798448,191 mi,AL,11539.0,3 hours 12 mins,33.7756178,-84.396285,4750.0,2575.0,2078.0,58.0,0.0,29.0,78.0,1058.0,142.0,193.0,277.0,74.0,6.0,0.0,1137.0,2003.0,257.0,7.0,1.0,39.0,35.7,41.6,28978.0,17906.0,503.0,71900.0,,,,
3263,"BRUNSON, SC",GTECH,"SAVANNAH, GA",59.1497448981416,1,BRUNSON,32.94116,-81.141681,68.7 mi,SC,4886.0,1 hour 21 mins,32.0835,-81.0998,2017.0,1478.0,539.0,0.0,0.0,19.0,6.0,493.0,123.0,215.0,51.0,17.0,0.0,22.0,441.0,950.0,92.0,19.0,0.0,41.1,39.9,44.7,31886.0,28352.0,720.0,75800.0,,,,
3265,"BRUNSWICK, GA",GTECH,"SAVANNAH, GA",63.4240507941959,1,BRUNSWICK,31.23881525,-81.5276515,74.9 mi,GA,4199.0,1 hour 10 mins,32.0835,-81.0998,65079.0,39174.0,20651.0,188.0,675.0,4915.0,369.0,11777.0,2608.0,3400.0,4752.0,2424.0,440.0,208.0,13969.0,31888.0,3226.0,538.0,126.0,37.1666666666667,35.9333333333333,38.1333333333333,43412.3333333333,21693.3333333333,796.333333333333,122800.0,4.78,12.9,0.038,2.3
3301,"BRYSON CITY, NC",GTECH,"ATLANTA, GA",121.514643048266,1,BRYSON CITY,35.373495,-83.495989,149 mi,NC,10614.0,2 hours 57 mins,33.7756178,-84.396285,8698.0,7676.0,150.0,262.0,59.0,145.0,131.0,1792.0,286.0,602.0,683.0,283.0,37.0,41.0,1491.0,4026.0,349.0,30.0,11.0,47.1,42.4,50.3,39167.0,21706.0,613.0,140700.0,0.23,2.55,0.034,0.02
3304,"BUCHANAN, GA",GTECH,"ATLANTA, GA",46.8305975699254,1,BUCHANAN,33.850746,-85.205308,63.4 mi,GA,4511.0,1 hour 15 mins,33.7756178,-84.396285,6022.0,5574.0,259.0,2.0,56.0,65.0,83.0,1255.0,325.0,199.0,247.0,178.0,50.0,14.0,910.0,2594.0,246.0,39.0,10.0,44.9,42.1,47.2,31966.0,18922.0,644.0,98200.0,,,,
3323,"BUCKHEAD, GA",GTECH,"ATLANTA, GA",63.7353885766019,1,BUCKHEAD,33.520284,-83.33353,70.9 mi,GA,4715.0,1 hour 19 mins,33.7756178,-84.396285,2407.0,2165.0,214.0,9.0,0.0,70.0,11.0,678.0,152.0,152.0,183.0,86.0,10.0,15.0,303.0,1106.0,67.0,28.0,9.0,45.6,45.9,45.3,52063.0,25293.0,829.0,188200.0,,,,
3346,"BUCKS, AL",GTECH,"ATLANTA, GA",285.369792028008,1,BUCKS,30.998808,-88.018409,,AL,,,33.7756178,-84.396285,0.0,0.0,0.0,0.0,0.0,0.0,0.0,0.0,0.0,0.0,0.0,0.0,0.0,0.0,0.0,0.0,0.0,0.0,0.0,,,,,,,,,,,
3360,"BUENA VISTA, GA",GTECH,"ATLANTA, GA",102.846339452854,1,BUENA VISTA,32.285466,-84.493596,147 mi,GA,8799.0,2 hours 27 mins,33.7756178,-84.396285,6665.0,3130.0,2734.0,0.0,11.0,620.0,70.0,1514.0,263.0,164.0,328.0,163.0,72.0,0.0,1542.0,2844.0,413.0,24.0,5.0,39.3,39.3,40.1,36652.0,19292.0,473.0,93200.0,,,,
3397,"BUFORD, GA",GTECH,"ATLANTA, GA",32.9145360049813,1,BUFORD,34.1091415,-83.9861945,36.8 mi,GA,3836.0,1 hour 4 mins,33.7756178,-84.396285,91349.0,65292.0,12844.0,144.0,6124.0,14568.0,624.0,11442.0,1885.0,4868.0,13475.0,4553.0,734.0,1001.0,8779.0,46181.0,3471.0,2156.0,684.0,35.85,34.4,37.45,69904.0,28063.5,1083.0,180750.0,17.97,14.05,0.03,7.31
3399,"BUHL, AL",GTECH,"ATLANTA, GA",197.622543212891,1,BUHL,33.207796,-87.751031,223 mi,AL,12585.0,3 hours 30 mins,33.7756178,-84.396285,1956.0,1709.0,203.0,4.0,0.0,49.0,7.0,513.0,83.0,59.0,30.0,10.0,0.0,0.0,413.0,1100.0,65.0,7.0,0.0,36.1,34.1,36.5,46917.0,20035.0,783.0,113800.0,,,,
3564,"BUTLER, AL",GTECH,"ATLANTA, GA",252.465701769029,1,BUTLER,32.100587,-88.260758,,AL,,,33.7756178,-84.396285,4096.0,2422.0,1612.0,0.0,0.0,48.0,17.0,915.0,151.0,200.0,364.0,88.0,34.0,0.0,815.0,1500.0,152.0,22.0,0.0,47.5,46.4,47.7,31554.0,22066.0,554.0,75800.0,,,,
3565,"BUTLER, GA",GTECH,"ATLANTA, GA",82.7769503108339,1,BUTLER,32.580721,-84.250733,108 mi,GA,7521.0,2 hours 5 mins,33.7756178,-84.396285,4480.0,2322.0,2089.0,0.0,0.0,69.0,111.0,982.0,199.0,175.0,134.0,137.0,14.0,0.0,1300.0,1879.0,382.0,18.0,23.0,41.8,38.0,43.7,27600.0,17008.0,560.0,47200.0,,,,
3609,"BYROMVILLE, GA",GTECH,"ATLANTA, GA",112.711686797353,1,BYROMVILLE,32.188514,-83.927321,137 mi,GA,7856.0,2 hours 11 mins,33.7756178,-84.396285,957.0,379.0,548.0,0.0,12.0,51.0,11.0,191.0,31.0,31.0,88.0,23.0,0.0,3.0,177.0,345.0,13.0,4.0,0.0,47.0,47.3,46.8,28264.0,17233.0,475.0,46500.0,,,,
3612,"BYRON, GA",GTECH,"ATLANTA, GA",84.2873777160297,1,BYRON,32.665346,-83.785924,99.1 mi,GA,6172.0,1 hour 43 mins,33.7756178,-84.396285,17949.0,12648.0,4207.0,9.0,171.0,809.0,84.0,2919.0,799.0,1085.0,1726.0,518.0,59.0,105.0,2117.0,9147.0,597.0,173.0,68.0,38.4,37.2,39.2,53283.0,25135.0,866.0,132600.0,2.05,10.05,0.043,0.86
3642,"CADES, SC",GTECH,"SAVANNAH, GA",138.194549814292,1,CADES,33.788608,-79.847975,161 mi,SC,9090.0,2 hours 32 mins,32.0835,-81.0998,1091.0,609.0,482.0,0.0,0.0,0.0,18.0,278.0,64.0,99.0,55.0,26.0,0.0,4.0,352.0,465.0,31.0,4.0,6.0,42.5,37.5,47.0,33750.0,16166.0,,89000.0,,,,
3649,"CADWELL, GA",GTECH,"SAVANNAH, GA",113.332282086385,1,CADWELL,32.281608,-83.019789,126 mi,GA,7088.0,1 hour 58 mins,32.0835,-81.0998,1503.0,1151.0,292.0,25.0,0.0,15.0,12.0,490.0,98.0,54.0,71.0,19.0,0.0,4.0,384.0,432.0,39.0,7.0,0.0,44.8,39.4,53.8,21953.0,16373.0,642.0,70800.0,,,,
3654,"CAIRO, GA",GTECH,"ATLANTA, GA",199.937797415433,1,CAIRO,30.877978,-84.2172345,234 mi,GA,13509.0,3 hours 45 mins,33.7756178,-84.396285,19600.0,11772.0,6336.0,0.0,88.0,2450.0,462.0,3853.0,706.0,1081.0,983.0,508.0,98.0,95.0,6321.0,7957.0,862.0,187.0,12.0,37.25,35.3,39.35,32907.5,15969.5,724.5,126000.0,0.68,6.73,0.026,0.12
3687,"CALERA, AL",GTECH,"ATLANTA, GA",142.522686723495,1,CALERA,33.102967,-86.728894,175 mi,AL,9637.0,2 hours 41 mins,33.7756178,-84.396285,16059.0,11938.0,3493.0,30.0,62.0,668.0,80.0,2492.0,328.0,477.0,2348.0,832.0,134.0,62.0,1132.0,8590.0,424.0,349.0,226.0,32.7,32.2,33.8,61525.0,24880.0,1020.0,137900.0,1.15,10.67,0.046,0.56
3692,"CALHOUN FALLS, SC",GTECH,"ATLANTA, GA",107.725997815341,1,CALHOUN FALLS,34.089135,-82.559262,131 mi,SC,8991.0,2 hours 30 mins,33.7756178,-84.396285,2487.0,1334.0,982.0,3.0,0.0,7.0,15.0,543.0,108.0,166.0,119.0,19.0,0.0,0.0,605.0,1053.0,193.0,16.0,4.0,41.8,40.9,42.5,31301.0,14583.0,576.0,58600.0,0.23,6.56,0.027,0.04
3693,"CALHOUN, GA",GTECH,"ATLANTA, GA",58.9779927336406,1,CALHOUN,34.492384,-84.958336,66.1 mi,GA,5644.0,1 hour 34 mins,33.7756178,-84.396285,39969.0,35024.0,2340.0,117.0,588.0,8123.0,767.0,6446.0,2135.0,1706.0,2282.0,1091.0,264.0,187.0,7281.0,18258.0,1226.0,262.0,30.0,36.7,35.7,37.5,41763.0,19584.0,668.0,119000.0,8.42,15.05,0.046,5.68
3743,"CALVERT, AL",GTECH,"ATLANTA, GA",276.714579308793,1,CALVERT,31.173869,-88.005799,,AL,,,33.7756178,-84.396285,706.0,440.0,266.0,0.0,0.0,0.0,0.0,176.0,0.0,10.0,0.0,0.0,0.0,0.0,325.0,195.0,0.0,0.0,0.0,33.2,33.5,29.7,40804.0,12973.0,,,,,,
3753,"CAMAK, GA",GTECH,"ATLANTA, GA",103.130954662161,1,CAMAK,33.457408,-82.648621,116 mi,GA,6647.0,1 hour 51 mins,33.7756178,-84.396285,132.0,19.0,99.0,0.0,0.0,3.0,0.0,52.0,2.0,2.0,5.0,12.0,0.0,0.0,3.0,66.0,0.0,0.0,0.0,41.7,38.2,41.9,54191.0,29013.0,778.0,56900.0,,,,
3787,"CAMDEN, AL",GTECH,"ATLANTA, GA",209.80903844854,1,CAMDEN,31.963626,-87.295936,,AL,,,33.7756178,-84.396285,5514.0,1621.0,3886.0,2.0,0.0,5.0,77.0,1511.0,168.0,191.0,262.0,97.0,84.0,0.0,1950.0,1965.0,424.0,52.0,0.0,38.9,37.3,40.0,25382.0,15705.0,416.0,89100.0,,,,
3816,"CAMERON, SC",GTECH,"SAVANNAH, GA",106.182074179843,1,CAMERON,33.576312,-80.647573,120 mi,SC,6955.0,1 hour 56 mins,32.0835,-81.0998,1939.0,1068.0,811.0,0.0,0.0,53.0,13.0,369.0,41.0,110.0,294.0,53.0,20.0,11.0,375.0,970.0,51.0,28.0,2.0,46.3,47.0,44.6,41827.0,26717.0,617.0,120800.0,,,,
3820,"CAMILLA, GA",GTECH,"ATLANTA, GA",177.901028254947,1,CAMILLA,31.194884,-84.310924,216 mi,GA,12248.0,3 hours 24 mins,33.7756178,-84.396285,9520.0,3778.0,5607.0,16.0,60.0,425.0,95.0,1855.0,302.0,270.0,717.0,290.0,0.0,9.0,2662.0,4299.0,769.0,22.0,4.0,38.5,34.2,42.8,31140.0,16652.0,592.0,79700.0,1.59,22.27,0.018,0.62
3829,"CAMP HILL, AL",GTECH,"ATLANTA, GA",100.079295235619,1,CAMP HILL,32.783232,-85.658566,118 mi,AL,7419.0,2 hours 4 mins,33.7756178,-84.396285,2676.0,907.0,1712.0,0.0,0.0,24.0,14.0,691.0,78.0,119.0,178.0,30.0,16.0,32.0,602.0,1009.0,85.0,0.0,0.0,43.9,43.7,44.3,30227.0,16497.0,515.0,49200.0,,,,
3844,"CAMPBELL, AL",GTECH,"ATLANTA, GA",247.537103324371,1,CAMPBELL,31.910985,-88.03391,,AL,,,33.7756178,-84.396285,149.0,143.0,6.0,0.0,0.0,0.0,0.0,37.0,8.0,0.0,0.0,0.0,0.0,0.0,145.0,26.0,24.0,0.0,0.0,20.7,14.0,29.5,,1634.0,,22300.0,,,,
3918,"CANON, GA",GTECH,"ATLANTA, GA",84.8081157226001,1,CANON,34.34005,-83.082621,94.3 mi,GA,6604.0,1 hour 50 mins,33.7756178,-84.396285,4590.0,3728.0,660.0,2.0,0.0,271.0,80.0,940.0,243.0,259.0,232.0,29.0,32.0,12.0,1391.0,1795.0,177.0,48.0,7.0,39.5,38.1,39.9,32024.0,15201.0,675.0,108300.0,,,,
3927,"CANTON, GA",GTECH,"ATLANTA, GA",31.2713449521787,1,CANTON,34.225965,-84.462465,39.2 mi,GA,4116.0,1 hour 9 mins,33.7756178,-84.396285,89879.0,78001.0,5319.0,101.0,722.0,10885.0,1045.0,11595.0,2469.0,3991.0,13401.0,4438.0,1188.0,562.0,11697.0,44230.0,2651.0,1533.0,282.0,37.35,36.55,38.0,68017.5,30002.5,964.0,222600.0,13.42,17.17,0.036,8.0
3993,"CARBON HILL, AL",GTECH,"ATLANTA, GA",181.209477493058,1,CARBON HILL,33.851343,-87.544905,210 mi,AL,11776.0,3 hours 16 mins,33.7756178,-84.396285,4213.0,3982.0,110.0,4.0,12.0,86.0,29.0,814.0,282.0,128.0,143.0,123.0,51.0,30.0,1157.0,1653.0,199.0,0.0,0.0,45.5,42.6,47.3,30197.0,19756.0,361.0,66500.0,,,,
4044,"CARLTON, GA",GTECH,"ATLANTA, GA",83.4625037025174,1,CARLTON,33.972176,-82.963748,100 mi,GA,8002.0,2 hours 13 mins,33.7756178,-84.396285,2058.0,1624.0,355.0,15.0,0.0,46.0,22.0,580.0,65.0,87.0,158.0,73.0,13.0,15.0,494.0,989.0,169.0,23.0,17.0,51.4,50.4,52.3,34732.0,21148.0,521.0,84700.0,,,,
4070,"CARNESVILLE, GA",GTECH,"ATLANTA, GA",75.1366615580106,1,CARNESVILLE,34.362448,-83.292322,82.9 mi,GA,5738.0,1 hour 36 mins,33.7756178,-84.396285,4708.0,3872.0,263.0,0.0,284.0,216.0,174.0,952.0,193.0,267.0,310.0,99.0,34.0,14.0,1185.0,1666.0,99.0,81.0,8.0,44.2,44.3,44.2,36016.0,17181.0,513.0,107200.0,0.45,5.76,0.042,0.11
4105,"CARROLLTON, GA",GTECH,"ATLANTA, GA",41.9745138690655,1,CARROLLTON,33.564943,-85.0797136666667,54.1 mi,GA,4316.0,1 hour 12 mins,33.7756178,-84.396285,60772.0,44745.0,12385.0,229.0,671.0,5050.0,788.0,9471.0,2529.0,1890.0,4550.0,1771.0,601.0,504.0,13361.0,28482.0,3399.0,594.0,189.0,28.7333333333333,28.3333333333333,29.0333333333333,41364.5,15286.6666666667,810.5,114750.0,6.82,14.22,0.03,2.87
4134,"CARTERSVILLE, GA",GTECH,"ATLANTA, GA",37.2563218175311,1,CARTERSVILLE,34.18855,-84.81501,42.9 mi,GA,4545.0,1 hour 16 mins,33.7756178,-84.396285,61882.0,49972.0,8270.0,423.0,590.0,5658.0,356.0,10855.0,2423.0,2577.0,5311.0,1886.0,552.0,161.0,9820.0,29620.0,2633.0,926.0,418.0,35.4,35.0,36.15,48792.5,23037.0,833.0,125550.0,11.83,20.63,0.031,7.32
4189,"CASHIERS, NC",GTECH,"ATLANTA, GA",115.104034175479,1,CASHIERS,35.049462,-83.093365,144 mi,NC,9403.0,2 hours 37 mins,33.7756178,-84.396285,1965.0,1855.0,0.0,18.0,0.0,92.0,0.0,281.0,100.0,111.0,229.0,133.0,81.0,53.0,374.0,979.0,33.0,0.0,0.0,49.1,37.3,55.1,49393.0,31467.0,805.0,459000.0,,,,
4232,"CASTLEBERRY, AL",GTECH,"ATLANTA, GA",229.939650548665,1,CASTLEBERRY,31.293982,-87.030269,,AL,,,33.7756178,-84.396285,3040.0,1955.0,1032.0,0.0,0.0,65.0,74.0,779.0,98.0,250.0,45.0,22.0,9.0,0.0,932.0,921.0,146.0,22.0,0.0,42.2,41.1,42.9,27995.0,13412.0,469.0,64400.0,,,,
4249,"CATAULA, GA",GTECH,"ATLANTA, GA",82.3664921551881,1,CATAULA,32.662266,-84.913411,100 mi,GA,5886.0,1 hour 38 mins,33.7756178,-84.396285,5787.0,5267.0,328.0,0.0,15.0,119.0,15.0,1025.0,87.0,363.0,613.0,227.0,85.0,0.0,241.0,3073.0,111.0,79.0,22.0,43.2,40.7,44.8,90438.0,38279.0,988.0,216500.0,,,,
4261,"CATHERINE, AL",GTECH,"ATLANTA, GA",210.65818704335,1,CATHERINE,32.161399,-87.476215,,AL,,,33.7756178,-84.396285,326.0,72.0,254.0,0.0,0.0,0.0,0.0,74.0,0.0,2.0,26.0,0.0,0.0,0.0,169.0,118.0,48.0,0.0,0.0,48.9,47.3,51.6,16926.0,20471.0,,84100.0,,,,
4282,"CAVE SPRING, GA",GTECH,"ATLANTA, GA",59.8601027316919,1,CAVE SPRING,34.133691,-85.345801,88.6 mi,GA,6228.0,1 hour 44 mins,33.7756178,-84.396285,2812.0,2600.0,173.0,0.0,0.0,5.0,18.0,407.0,110.0,127.0,250.0,109.0,97.0,37.0,523.0,1186.0,225.0,18.0,0.0,41.4,37.6,43.4,40489.0,19972.0,510.0,126000.0,,,,
4300,"CECIL, AL",GTECH,"ATLANTA, GA",138.069777039443,1,CECIL,32.284669,-85.985235,156 mi,AL,8528.0,2 hours 22 mins,33.7756178,-84.396285,554.0,442.0,104.0,0.0,0.0,25.0,0.0,56.0,0.0,26.0,152.0,78.0,6.0,0.0,23.0,303.0,0.0,14.0,0.0,40.5,46.0,39.7,127567.0,41793.0,,297800.0,,,,
4302,"CECIL, GA",GTECH,"ATLANTA, GA",197.206994843298,1,CECIL,31.043183,-83.392615,213 mi,GA,10995.0,3 hours 3 mins,33.7756178,-84.396285,289.0,143.0,145.0,1.0,0.0,0.0,0.0,47.0,9.0,6.0,12.0,0.0,0.0,0.0,75.0,114.0,10.0,2.0,0.0,36.6,41.8,34.9,32813.0,13744.0,633.0,112500.0,,,,
4308,"CEDAR BLUFF, AL",GTECH,"ATLANTA, GA",76.6286814492133,1,CEDAR BLUFF,34.242383,-85.607959,98.4 mi,AL,7464.0,2 hours 4 mins,33.7756178,-84.396285,4709.0,4306.0,331.0,14.0,20.0,77.0,74.0,851.0,218.0,224.0,245.0,109.0,86.0,0.0,913.0,1681.0,208.0,19.0,3.0,47.2,48.3,44.7,37243.0,23214.0,612.0,112300.0,,,,
4352,"CEDARTOWN, GA",GTECH,"ATLANTA, GA",52.913817603367,1,CEDARTOWN,34.000316,-85.276531,76.6 mi,GA,5309.0,1 hour 28 mins,33.7756178,-84.396285,24623.0,17801.0,2934.0,0.0,107.0,4970.0,469.0,4509.0,1428.0,620.0,1074.0,616.0,167.0,64.0,5377.0,10381.0,1157.0,63.0,0.0,34.9,32.6,36.9,38853.0,19617.0,665.0,108600.0,4.32,13.21,0.05,2.76
4407,"CENTERVILLE, GA",GTECH,"ATLANTA, GA",88.6826014046661,1,CENTERVILLE,32.6312,-83.6963,100 mi,GA,6179.0,1 hour 43 mins,33.7756178,-84.396285,5443.0,3621.0,1056.0,0.0,268.0,310.0,100.0,1115.0,96.0,355.0,512.0,298.0,97.0,27.0,575.0,2753.0,163.0,94.0,0.0,42.1,36.5,46.1,53866.0,26786.0,952.0,161000.0,,,,
4435,"CENTRAL, SC",GTECH,"ATLANTA, GA",112.963662161198,1,CENTRAL,34.738673,-82.799161,126 mi,SC,8222.0,2 hours 17 mins,33.7756178,-84.396285,14322.0,12357.0,1220.0,70.0,277.0,949.0,44.0,1791.0,408.0,730.0,1329.0,707.0,209.0,350.0,3863.0,7488.0,522.0,363.0,184.0,28.7,28.4,30.1,31710.0,21138.0,677.0,125500.0,0.92,30.52,0.022,0.62
4443,"CENTRE, AL",GTECH,"ATLANTA, GA",71.6024700371257,1,CENTRE,34.124328,-85.570557,98.7 mi,AL,6897.0,1 hour 55 mins,33.7756178,-84.396285,10187.0,9125.0,729.0,47.0,50.0,115.0,115.0,2165.0,314.0,646.0,724.0,333.0,110.0,96.0,1707.0,4242.0,237.0,132.0,63.0,47.9,45.1,49.6,37373.0,23766.0,589.0,117100.0,0.46,4.28,0.054,0.1
4444,"CENTREVILLE, AL",GTECH,"ATLANTA, GA",166.394168133461,1,CENTREVILLE,32.957991,-87.103816,201 mi,AL,11190.0,3 hours 7 mins,33.7756178,-84.396285,5932.0,4583.0,1245.0,16.0,0.0,0.0,88.0,1551.0,230.0,311.0,226.0,209.0,12.0,11.0,889.0,2796.0,151.0,16.0,0.0,44.8,43.3,46.2,41734.0,25148.0,553.0,123700.0,,,,
4506,"CHANCELLOR, AL",GTECH,"ATLANTA, GA",198.600966080013,1,CHANCELLOR,31.175691,-85.863975,244 mi,AL,14042.0,3 hours 54 mins,33.7756178,-84.396285,1727.0,1642.0,51.0,0.0,2.0,2.0,9.0,245.0,127.0,155.0,188.0,80.0,0.0,2.0,119.0,850.0,16.0,21.0,0.0,43.0,42.9,44.0,60372.0,27093.0,574.0,138700.0,,,,
4552,"CHARLESTON AFB, SC",GTECH,"SAVANNAH, GA",83.175495456403,1,CHARLESTON AFB,32.898999,-80.049739,111 mi,SC,8293.0,2 hours 18 mins,32.0835,-81.0998,1511.0,1201.0,214.0,0.0,24.0,118.0,0.0,128.0,0.0,87.0,40.0,40.0,0.0,8.0,30.0,826.0,12.0,50.0,0.0,22.5,22.5,22.4,41250.0,20003.0,1288.0,,,,,
4559,"CHARLESTON, SC",GTECH,"SAVANNAH, GA",83.2223453997886,1,CHARLESTON,32.8332999,-79.9830239,105 mi,SC,7467.0,2 hours 4 mins,32.0835,-81.0998,187746.0,129784.0,50257.0,222.0,2477.0,10075.0,945.0,22613.0,3165.0,10010.0,34816.0,12548.0,4208.0,2780.0,33070.0,103983.0,7878.0,4294.0,1807.0,29.34,29.0,30.08,62499.125,24819.1,1084.25,354100.0,42.74,12.09,0.035,17.7
4611,"CHATOM, AL",GTECH,"ATLANTA, GA",277.237815219661,1,CHATOM,31.459303,-88.28404,,AL,,,33.7756178,-84.396285,2179.0,1835.0,331.0,7.0,0.0,51.0,0.0,607.0,55.0,90.0,180.0,96.0,40.0,0.0,251.0,984.0,86.0,25.0,1.0,45.7,40.7,52.8,45192.0,26542.0,510.0,94200.0,,,,
4613,"CHATSWORTH, GA",GTECH,"ATLANTA, GA",69.4575574978418,1,CHATSWORTH,34.744142,-84.731404,82.3 mi,GA,6568.0,1 hour 49 mins,33.7756178,-84.396285,33804.0,32092.0,348.0,6.0,119.0,5084.0,478.0,5709.0,2415.0,1280.0,1525.0,564.0,266.0,104.0,6538.0,15441.0,1695.0,206.0,56.0,37.1,36.3,38.2,35525.0,17134.0,628.0,94600.0,2.05,8.21,0.062,1.02
4623,"CHAUNCEY, GA",GTECH,"SAVANNAH, GA",115.873765561129,1,CHAUNCEY,32.129553,-83.074859,134 mi,GA,7642.0,2 hours 7 mins,32.0835,-81.0998,906.0,677.0,195.0,2.0,0.0,28.0,1.0,187.0,54.0,31.0,104.0,73.0,3.0,0.0,167.0,403.0,55.0,5.0,0.0,37.2,37.5,37.1,48667.0,23588.0,516.0,91500.0,,,,
4640,"CHELSEA, AL",GTECH,"ATLANTA, GA",134.43136435829,1,CHELSEA,33.314842,-86.659872,152 mi,AL,9190.0,2 hours 33 mins,33.7756178,-84.396285,10101.0,8972.0,780.0,0.0,156.0,287.0,35.0,1454.0,259.0,471.0,2263.0,517.0,61.0,21.0,562.0,5130.0,165.0,222.0,162.0,36.9,38.9,34.4,81714.0,30988.0,1604.0,226800.0,1.15,12.34,0.053,0.75
4666,"CHEROKEE, NC",GTECH,"ATLANTA, GA",134.474779244034,1,CHEROKEE,35.517887,-83.334159,164 mi,NC,10975.0,3 hours 3 mins,33.7756178,-84.396285,8335.0,1408.0,136.0,6184.0,117.0,382.0,47.0,1327.0,445.0,476.0,485.0,141.0,8.0,40.0,2668.0,3172.0,92.0,75.0,29.0,32.1,33.3,31.4,27325.0,15936.0,572.0,106200.0,0.69,9.06,0.045,0.28
4673,"CHERRY LOG, GA",GTECH,"ATLANTA, GA",70.4038401579105,1,CHERRY LOG,34.795978,-84.340155,86.4 mi,GA,6765.0,1 hour 53 mins,33.7756178,-84.396285,790.0,790.0,0.0,0.0,0.0,0.0,0.0,179.0,30.0,95.0,54.0,66.0,11.0,8.0,244.0,285.0,23.0,24.0,16.0,61.3,58.0,61.4,35714.0,23600.0,,184700.0,,,,
4705,"CHESTER, GA",GTECH,"SAVANNAH, GA",123.325705691255,1,CHESTER,32.394344,-83.173715,133 mi,GA,7036.0,1 hour 57 mins,32.0835,-81.0998,3038.0,1619.0,1365.0,0.0,54.0,47.0,6.0,660.0,544.0,203.0,57.0,58.0,0.0,0.0,212.0,621.0,61.0,4.0,0.0,39.4,38.0,42.6,40625.0,9126.0,451.0,51600.0,,,,
4767,"CHICKAMAUGA, GA",GTECH,"ATLANTA, GA",88.0434631799028,1,CHICKAMAUGA,34.771941,-85.359193,107 mi,GA,7632.0,2 hours 7 mins,33.7756178,-84.396285,15840.0,14949.0,645.0,0.0,45.0,43.0,96.0,2931.0,1288.0,909.0,835.0,223.0,73.0,51.0,2229.0,6945.0,452.0,111.0,43.0,38.3,38.0,39.0,43888.0,20516.0,659.0,116300.0,0.68,20.57,0.147,2.01
4777,"CHILDERSBURG, AL",GTECH,"ATLANTA, GA",120.283097345712,1,CHILDERSBURG,33.243975,-86.380759,138 mi,AL,8696.0,2 hours 25 mins,33.7756178,-84.396285,7816.0,4221.0,3384.0,35.0,42.0,18.0,75.0,1695.0,307.0,433.0,246.0,131.0,51.0,0.0,2563.0,3237.0,554.0,0.0,10.0,37.1,37.7,36.1,29870.0,17989.0,478.0,102600.0,,,,
4849,"CHULA, GA",GTECH,"ATLANTA, GA",159.395928335679,1,CHULA,31.59319,-83.489763,180 mi,GA,9698.0,2 hours 42 mins,33.7756178,-84.396285,1536.0,1259.0,277.0,0.0,0.0,0.0,17.0,382.0,25.0,92.0,107.0,60.0,25.0,29.0,154.0,713.0,24.0,27.0,11.0,48.9,45.6,51.3,55298.0,27652.0,666.0,139200.0,,,,
4851,"CHUNCHULA, AL",GTECH,"ATLANTA, GA",293.887715854576,1,CHUNCHULA,30.964986,-88.17733,,AL,,,33.7756178,-84.396285,4964.0,4324.0,463.0,107.0,0.0,31.0,27.0,1223.0,299.0,248.0,227.0,0.0,9.0,39.0,727.0,2241.0,173.0,29.0,0.0,38.6,33.7,43.9,42801.0,19013.0,1043.0,108300.0,,,,
4892,"CISCO, GA",GTECH,"ATLANTA, GA",83.18595135076,1,CISCO,34.961786,-84.664588,102 mi,GA,7898.0,2 hours 12 mins,33.7756178,-84.396285,289.0,289.0,0.0,0.0,0.0,0.0,0.0,7.0,12.0,6.0,4.0,0.0,0.0,0.0,11.0,171.0,11.0,0.0,0.0,30.2,33.4,27.4,46202.0,25202.0,,85700.0,,,,
4902,"CITRONELLE, AL",GTECH,"ATLANTA, GA",292.541992975588,1,CITRONELLE,31.090945,-88.275355,,AL,,,33.7756178,-84.396285,6710.0,4872.0,1139.0,456.0,0.0,78.0,47.0,1654.0,298.0,247.0,367.0,61.0,10.0,10.0,776.0,2916.0,122.0,28.0,0.0,37.1,37.0,37.3,44795.0,20344.0,955.0,104000.0,,,,
4913,"CLANTON, AL",GTECH,"ATLANTA, GA",142.372309096423,1,CLANTON,32.8655515,-86.605459,193 mi,AL,10596.0,2 hours 57 mins,33.7756178,-84.396285,19153.0,16517.0,2206.0,39.0,93.0,886.0,242.0,4381.0,804.0,1084.0,1270.0,624.0,87.0,40.0,3540.0,8971.0,861.0,186.0,113.0,41.4,41.2,41.7,41254.5,23136.5,710.0,109500.0,1.15,2.94,0.073,0.24
4957,"CLARKESVILLE, GA",GTECH,"ATLANTA, GA",80.8491575247562,1,CLARKESVILLE,34.716543,-83.552878,89.4 mi,GA,7008.0,1 hour 57 mins,33.7756178,-84.396285,12084.0,11585.0,266.0,34.0,18.0,330.0,138.0,2189.0,691.0,665.0,1270.0,692.0,250.0,96.0,1410.0,5020.0,357.0,104.0,95.0,49.3,48.5,50.1,44719.0,24804.0,761.0,159100.0,0.68,6.41,0.023,0.1
4966,"CLARKS HILL, SC",GTECH,"ATLANTA, GA",132.173477847519,1,CLARKS HILL,33.643047,-82.107049,151 mi,SC,8922.0,2 hours 29 mins,33.7756178,-84.396285,1508.0,1140.0,281.0,0.0,0.0,113.0,0.0,330.0,41.0,75.0,93.0,0.0,5.0,8.0,257.0,736.0,47.0,57.0,4.0,32.3,32.4,31.7,63611.0,24587.0,465.0,106700.0,,,,
4981,"CLARKSTON, GA",GTECH,"ATLANTA, GA",9.38377467548083,1,CLARKSTON,33.806929,-84.237588,21.3 mi,GA,2413.0,40 mins,33.7756178,-84.396285,24196.0,3535.0,12918.0,41.0,6996.0,642.0,1595.0,3279.0,268.0,660.0,2081.0,689.0,114.0,111.0,9892.0,11776.0,1675.0,146.0,105.0,29.5,29.1,30.0,32877.0,13915.0,834.0,109700.0,4.32,23.41,0.033,3.24
5009,"CLAXTON, GA",GTECH,"SAVANNAH, GA",48.5213012125929,1,CLAXTON,32.170468,-81.920992,53.6 mi,GA,3723.0,1 hour 2 mins,32.0835,-81.0998,10750.0,6409.0,3133.0,1.0,62.0,1286.0,130.0,2135.0,430.0,349.0,715.0,246.0,33.0,59.0,2820.0,4460.0,417.0,113.0,12.0,34.7,35.1,34.4,37893.0,19215.0,606.0,87400.0,,,,
5029,"CLAYTON, AL",GTECH,"ATLANTA, GA",145.311675569791,1,CLAYTON,31.850223,-85.414706,169 mi,AL,10240.0,2 hours 51 mins,33.7756178,-84.396285,5002.0,2093.0,2793.0,28.0,6.0,86.0,68.0,792.0,331.0,175.0,243.0,84.0,28.0,4.0,893.0,1499.0,271.0,18.0,8.0,41.0,38.0,49.6,31513.0,13872.0,466.0,82500.0,,,,
5032,"CLAYTON, GA",GTECH,"ATLANTA, GA",97.6217216603207,1,CLAYTON,34.907217,-83.369483,108 mi,GA,7615.0,2 hours 7 mins,33.7756178,-84.396285,6635.0,6303.0,137.0,10.0,0.0,552.0,57.0,1421.0,348.0,248.0,528.0,358.0,118.0,76.0,1302.0,2833.0,218.0,36.0,8.0,46.2,44.4,48.5,32706.0,22668.0,709.0,144900.0,1.36,5.25,0.024,0.17
5090,"CLEMSON, SC",GTECH,"ATLANTA, GA",109.295941922086,1,CLEMSON,34.6784355,-82.8268315,121 mi,SC,7751.0,2 hours 9 mins,33.7756178,-84.396285,19655.0,16231.0,1578.0,60.0,1254.0,543.0,23.0,697.0,111.0,367.0,1563.0,1281.0,146.0,808.0,5475.0,7720.0,573.0,417.0,249.0,21.15,21.05,21.6,21046.0,12244.0,851.0,198900.0,7.35,12.41,0.029,2.57
5094,"CLERMONT, GA",GTECH,"ATLANTA, GA",60.0246052121507,1,CLERMONT,34.480827,-83.781847,67.2 mi,GA,5661.0,1 hour 34 mins,33.7756178,-84.396285,4659.0,4563.0,0.0,39.0,0.0,4.0,74.0,880.0,134.0,214.0,532.0,104.0,76.0,15.0,712.0,2439.0,212.0,41.0,12.0,38.6,34.7,43.9,59363.0,24560.0,1044.0,196400.0,0.23,11.07,0.034,0.08
5097,"CLEVELAND, AL",GTECH,"ATLANTA, GA",128.034804298092,1,CLEVELAND,33.961807,-86.612064,162 mi,AL,10065.0,2 hours 48 mins,33.7756178,-84.396285,3980.0,3916.0,7.0,0.0,3.0,475.0,21.0,622.0,273.0,296.0,180.0,122.0,17.0,28.0,577.0,1797.0,165.0,20.0,20.0,38.2,37.6,38.4,44241.0,19820.0,747.0,137000.0,,,,
5099,"CLEVELAND, GA",GTECH,"ATLANTA, GA",67.7492234066734,1,CLEVELAND,34.621918,-83.79462,82.1 mi,GA,6328.0,1 hour 45 mins,33.7756178,-84.396285,22883.0,21595.0,583.0,22.0,19.0,773.0,173.0,4054.0,1268.0,1418.0,1722.0,734.0,134.0,90.0,4781.0,9541.0,640.0,184.0,138.0,41.8,41.1,42.3,38970.0,20215.0,693.0,142700.0,2.5,28.76,0.038,2.69
5146,"CLIMAX, GA",GTECH,"ATLANTA, GA",198.550876395295,1,CLIMAX,30.894278,-84.43115,241 mi,GA,13812.0,3 hours 50 mins,33.7756178,-84.396285,2251.0,1887.0,335.0,10.0,0.0,35.0,10.0,419.0,95.0,174.0,130.0,57.0,15.0,6.0,366.0,1067.0,54.0,4.0,9.0,47.5,43.4,50.2,41236.0,24586.0,572.0,127500.0,,,,
5187,"CLIO, AL",GTECH,"ATLANTA, GA",159.500190087845,1,CLIO,31.679443,-85.55772,185 mi,AL,11417.0,3 hours 10 mins,33.7756178,-84.396285,2614.0,1382.0,1124.0,3.0,0.0,157.0,11.0,418.0,307.0,94.0,112.0,38.0,4.0,4.0,307.0,659.0,97.0,26.0,5.0,41.3,40.4,45.0,33750.0,12862.0,423.0,56900.0,,,,
5196,"CLOPTON, AL",GTECH,"ATLANTA, GA",158.217684690732,1,CLOPTON,31.643557,-85.404255,186 mi,AL,10929.0,3 hours 2 mins,33.7756178,-84.396285,318.0,244.0,69.0,0.0,0.0,0.0,0.0,60.0,36.0,14.0,22.0,9.0,0.0,0.0,51.0,143.0,15.0,7.0,0.0,55.8,53.7,56.3,39583.0,26411.0,425.0,65600.0,,,,
5229,"CLYO, GA",GTECH,"SAVANNAH, GA",31.6470504038933,1,CLYO,32.505422,-81.313427,38.9 mi,GA,3442.0,57 mins,32.0835,-81.0998,2436.0,1901.0,475.0,0.0,4.0,0.0,26.0,581.0,111.0,154.0,109.0,99.0,10.0,0.0,218.0,1154.0,57.0,50.0,6.0,37.0,39.5,33.4,62361.0,21127.0,744.0,115100.0,,,,
5266,"COBB, GA",GTECH,"ATLANTA, GA",126.865312145951,1,COBB,31.969555,-83.973306,155 mi,GA,8988.0,2 hours 30 mins,33.7756178,-84.396285,925.0,770.0,135.0,0.0,0.0,39.0,0.0,137.0,46.0,82.0,35.0,27.0,25.0,21.0,252.0,293.0,24.0,0.0,0.0,39.4,39.4,39.0,44141.0,22390.0,632.0,148900.0,,,,
5270,"COBBTOWN, GA",GTECH,"SAVANNAH, GA",63.2931375062276,1,COBBTOWN,32.288422,-82.152736,72.1 mi,GA,4131.0,1 hour 9 mins,32.0835,-81.0998,1285.0,1014.0,68.0,0.0,0.0,217.0,21.0,227.0,39.0,76.0,74.0,11.0,1.0,0.0,494.0,468.0,61.0,6.0,0.0,33.4,25.7,38.3,29188.0,15983.0,474.0,59100.0,,,,
5279,"COCHRAN, GA",GTECH,"ATLANTA, GA",111.669214464496,1,COCHRAN,32.415886,-83.349077,122 mi,GA,7287.0,2 hours 1 min,33.7756178,-84.396285,13382.0,9360.0,3578.0,15.0,34.0,392.0,106.0,3144.0,623.0,575.0,741.0,399.0,54.0,102.0,2821.0,4962.0,311.0,160.0,13.0,37.8,37.2,39.6,37603.0,19400.0,606.0,82000.0,0.23,40.72,0.049,0.44
5287,"CODEN, AL",GTECH,"ATLANTA, GA",323.357252646668,1,CODEN,30.370798,-88.190791,,AL,,,33.7756178,-84.396285,2190.0,2093.0,8.0,0.0,31.0,50.0,26.0,449.0,209.0,170.0,76.0,37.0,0.0,32.0,318.0,927.0,18.0,57.0,0.0,51.7,52.0,50.6,49750.0,22369.0,783.0,111000.0,,,,
5298,"COFFEE SPRINGS, AL",GTECH,"ATLANTA, GA",201.214644905509,1,COFFEE SPRINGS,31.169524,-85.950531,,AL,,,33.7756178,-84.396285,1362.0,1286.0,28.0,3.0,0.0,28.0,2.0,262.0,48.0,114.0,48.0,66.0,5.0,0.0,277.0,613.0,79.0,20.0,10.0,46.7,49.3,45.0,34420.0,21728.0,650.0,68500.0,,,,
5301,"COFFEEVILLE, AL",GTECH,"ATLANTA, GA",250.472488370222,1,COFFEEVILLE,31.802618,-88.010863,,AL,,,33.7756178,-84.396285,1266.0,706.0,560.0,0.0,0.0,0.0,15.0,376.0,49.0,41.0,56.0,5.0,0.0,18.0,352.0,472.0,152.0,0.0,0.0,41.4,41.4,41.4,32875.0,17168.0,688.0,89300.0,,,,
5315,"COHUTTA, GA",GTECH,"ATLANTA, GA",86.3384386024775,1,COHUTTA,34.953194,-84.911171,104 mi,GA,7062.0,1 hour 58 mins,33.7756178,-84.396285,6676.0,6316.0,43.0,0.0,2.0,403.0,16.0,1006.0,384.0,242.0,527.0,240.0,130.0,15.0,1064.0,3262.0,318.0,37.0,66.0,43.0,41.8,44.7,51081.0,25694.0,533.0,141400.0,,,,
5321,"COKER, AL",GTECH,"ATLANTA, GA",192.647085755957,1,COKER,33.27819,-87.680702,217 mi,AL,12090.0,3 hours 22 mins,33.7756178,-84.396285,3337.0,3098.0,88.0,2.0,0.0,213.0,51.0,708.0,237.0,142.0,147.0,111.0,4.0,8.0,363.0,1525.0,83.0,20.0,5.0,41.4,41.9,38.2,56495.0,23225.0,777.0,143100.0,,,,
5323,"COLBERT, GA",GTECH,"ATLANTA, GA",70.1919022216271,1,COLBERT,34.028875,-83.213297,80.8 mi,GA,6633.0,1 hour 51 mins,33.7756178,-84.396285,6911.0,5723.0,801.0,0.0,0.0,358.0,48.0,1462.0,202.0,353.0,497.0,216.0,75.0,28.0,520.0,3047.0,149.0,9.0,79.0,40.1,37.5,42.7,50101.0,22631.0,746.0,136800.0,,,,
5351,"COLEMAN, GA",GTECH,"ATLANTA, GA",147.953160011651,1,COLEMAN,31.666007,-84.868633,174 mi,GA,10039.0,2 hours 47 mins,33.7756178,-84.396285,526.0,259.0,253.0,0.0,0.0,0.0,0.0,95.0,6.0,39.0,3.0,74.0,0.0,0.0,81.0,172.0,0.0,0.0,0.0,37.2,37.4,31.8,38281.0,17361.0,,85700.0,,,,
5391,"COLLINS, GA",GTECH,"SAVANNAH, GA",59.4562948752976,1,COLLINS,32.179599,-82.107566,70.8 mi,GA,4183.0,1 hour 10 mins,32.0835,-81.0998,3612.0,2630.0,966.0,0.0,11.0,40.0,39.0,645.0,230.0,93.0,200.0,128.0,30.0,0.0,813.0,1487.0,102.0,24.0,0.0,38.4,40.3,37.5,35078.0,19910.0,508.0,56100.0,,,,
5400,"COLLINSVILLE, AL",GTECH,"ATLANTA, GA",90.8140333835059,1,COLLINSVILLE,34.303952,-85.846214,131 mi,AL,8665.0,2 hours 24 mins,33.7756178,-84.396285,7169.0,5844.0,475.0,18.0,34.0,1495.0,177.0,1403.0,178.0,329.0,208.0,84.0,0.0,0.0,1549.0,2816.0,64.0,23.0,3.0,38.2,37.5,38.6,35313.0,17068.0,441.0,91100.0,,,,
5437,"COLQUITT, GA",GTECH,"ATLANTA, GA",181.524125252329,1,COLQUITT,31.152104,-84.677706,218 mi,GA,12209.0,3 hours 23 mins,33.7756178,-84.396285,6138.0,4100.0,2022.0,3.0,0.0,6.0,51.0,1503.0,276.0,157.0,305.0,97.0,74.0,19.0,1564.0,2708.0,176.0,6.0,32.0,43.8,41.1,44.7,34241.0,19452.0,595.0,91300.0,,,,
5455,"COLUMBIA, AL",GTECH,"ATLANTA, GA",174.020864339667,1,COLUMBIA,31.331937,-85.148874,213 mi,AL,11949.0,3 hours 19 mins,33.7756178,-84.396285,1844.0,1641.0,174.0,0.0,1.0,32.0,20.0,404.0,132.0,99.0,86.0,24.0,0.0,0.0,295.0,738.0,76.0,14.0,3.0,47.4,45.4,49.1,33571.0,19537.0,578.0,83100.0,,,,
5474,"COLUMBIANA, AL",GTECH,"ATLANTA, GA",134.23307122439,1,COLUMBIANA,33.205032,-86.618915,159 mi,AL,9601.0,2 hours 40 mins,33.7756178,-84.396285,8868.0,7355.0,1229.0,33.0,5.0,262.0,61.0,1539.0,544.0,308.0,924.0,249.0,31.0,23.0,1347.0,3311.0,155.0,75.0,18.0,39.3,38.2,42.4,45412.0,23070.0,613.0,134100.0,,,,
5480,"COLUMBUS, GA",GTECH,"ATLANTA, GA",94.3799281728528,1,COLUMBUS,32.4887923333333,-84.9533825,108 mi,GA,6458.0,1 hour 48 mins,33.7756178,-84.396285,179380.0,77635.0,86195.0,538.0,3888.0,11700.0,1842.0,26158.0,6740.0,9978.0,16889.0,7024.0,2087.0,1207.0,38063.0,85574.0,9041.0,2089.0,706.0,34.7166666666667,33.1833333333333,36.2333333333333,35968.6666666667,22096.5,758.166666666667,123750.0,20.24,12.49,0.034,8.37
5507,"COMER, GA",GTECH,"ATLANTA, GA",76.7586057061444,1,COMER,34.076932,-83.110117,92.6 mi,GA,6768.0,1 hour 53 mins,33.7756178,-84.396285,4431.0,3404.0,674.0,20.0,217.0,32.0,130.0,1029.0,191.0,146.0,234.0,166.0,12.0,40.0,950.0,1745.0,86.0,28.0,28.0,40.9,39.9,41.9,34130.0,20409.0,760.0,101900.0,,,,
5515,"COMMERCE, GA",GTECH,"ATLANTA, GA",62.9535840786107,1,COMMERCE,34.22005,-83.438226,69.3 mi,GA,5358.0,1 hour 29 mins,33.7756178,-84.396285,16479.0,14179.0,1418.0,173.0,98.0,1394.0,197.0,3550.0,928.0,544.0,745.0,261.0,154.0,37.0,2881.0,7419.0,746.0,58.0,39.0,37.9,37.75,38.45,42455.5,19084.5,768.0,116050.0,2.96,15.35,0.037,1.65
5545,"CONCORD, GA",GTECH,"ATLANTA, GA",46.9702438445926,1,CONCORD,33.096058,-84.458228,58.3 mi,GA,5481.0,1 hour 31 mins,33.7756178,-84.396285,2789.0,2244.0,526.0,0.0,0.0,62.0,6.0,836.0,107.0,178.0,131.0,51.0,4.0,2.0,286.0,1401.0,148.0,16.0,26.0,39.9,39.0,43.3,54034.0,23276.0,1043.0,113100.0,0.23,17.06,0.018,0.07
5580,"CONLEY, GA",GTECH,"ATLANTA, GA",9.35359216336962,1,CONLEY,33.652831,-84.327109,18.0 mi,GA,2123.0,35 mins,33.7756178,-84.396285,9100.0,1053.0,7444.0,43.0,44.0,753.0,48.0,2032.0,149.0,445.0,653.0,353.0,69.0,22.0,1925.0,4771.0,1019.0,54.0,14.0,33.3,34.6,32.0,49479.0,19208.0,792.0,84200.0,1.36,23.18,0.03,0.92
5626,"CONYERS, GA",GTECH,"ATLANTA, GA",23.735314556383,1,CONYERS,33.6584936666667,-84.008742,29.6 mi,GA,2717.0,45 mins,33.7756178,-84.396285,85596.0,37089.0,42753.0,104.0,1641.0,9073.0,686.0,15160.0,2026.0,3974.0,9725.0,3325.0,667.0,433.0,14302.0,42053.0,4967.0,1161.0,340.0,37.2,35.2666666666667,38.7333333333333,49208.6666666667,22280.3333333333,922.666666666667,135033.333333333,25.02,17.74,0.026,11.25
5628,"COOK SPRINGS, AL",GTECH,"ATLANTA, GA",116.715382540211,1,COOK SPRINGS,33.590682,-86.409897,124 mi,AL,7163.0,1 hour 59 mins,33.7756178,-84.396285,255.0,234.0,21.0,0.0,0.0,0.0,0.0,52.0,0.0,0.0,28.0,0.0,0.0,7.0,71.0,30.0,0.0,0.0,0.0,81.6,73.0,86.1,,17494.0,,,,,,
5647,"COOLIDGE, GA",GTECH,"ATLANTA, GA",192.834386159552,1,COOLIDGE,31.012696,-83.871858,216 mi,GA,12521.0,3 hours 29 mins,33.7756178,-84.396285,2174.0,1593.0,513.0,15.0,8.0,90.0,26.0,441.0,47.0,119.0,177.0,43.0,12.0,0.0,395.0,1000.0,50.0,37.0,0.0,35.2,36.1,35.0,39867.0,18132.0,627.0,94600.0,,,,
5664,"COOSADA, AL",GTECH,"ATLANTA, GA",143.03802802628,1,COOSADA,32.479374,-86.322997,177 mi,AL,9785.0,2 hours 43 mins,33.7756178,-84.396285,1075.0,496.0,564.0,0.0,0.0,0.0,9.0,232.0,42.0,68.0,109.0,29.0,3.0,6.0,233.0,491.0,19.0,28.0,15.0,40.6,40.6,40.5,46897.0,22679.0,730.0,152600.0,,,,
5665,"COOSAWHATCHIE, SC",GTECH,"SAVANNAH, GA",35.9500429023082,1,COOSAWHATCHIE,32.584548,-80.928494,40.1 mi,SC,2517.0,42 mins,32.0835,-81.0998,0.0,0.0,0.0,0.0,0.0,0.0,0.0,0.0,0.0,0.0,0.0,0.0,0.0,0.0,0.0,0.0,0.0,0.0,0.0,,,,,,,,,,,
5674,"COPE, SC",GTECH,"SAVANNAH, GA",89.1014324168112,1,COPE,33.372643,-80.981506,,SC,,,32.0835,-81.0998,2362.0,1591.0,763.0,0.0,0.0,76.0,0.0,518.0,20.0,200.0,232.0,36.0,3.0,20.0,444.0,1159.0,167.0,0.0,0.0,41.3,31.1,44.2,40417.0,20678.0,711.0,75100.0,,,,
5703,"CORDELE, GA",GTECH,"ATLANTA, GA",131.886353096692,1,CORDELE,31.935,-83.774945,148 mi,GA,8138.0,2 hours 16 mins,33.7756178,-84.396285,22090.0,11538.0,9901.0,8.0,255.0,760.0,265.0,4232.0,868.0,878.0,1282.0,526.0,192.0,95.0,7211.0,9556.0,1496.0,80.0,71.0,37.6,35.2,40.2,31078.0,19323.0,603.0,99200.0,0.68,14.58,0.037,0.36
5706,"CORDESVILLE, SC",GTECH,"SAVANNAH, GA",103.320660491187,1,CORDESVILLE,33.140888,-79.843725,152 mi,SC,9410.0,2 hours 37 mins,32.0835,-81.0998,544.0,496.0,29.0,0.0,0.0,0.0,0.0,38.0,17.0,42.0,27.0,9.0,0.0,0.0,97.0,260.0,65.0,5.0,0.0,33.6,31.5,39.2,45625.0,19104.0,919.0,126800.0,,,,
5707,"CORDOVA, AL",GTECH,"ATLANTA, GA",159.131215086969,1,CORDOVA,33.745429,-87.160466,181 mi,AL,9954.0,2 hours 46 mins,33.7756178,-84.396285,5065.0,4662.0,277.0,11.0,0.0,111.0,103.0,1083.0,439.0,337.0,114.0,77.0,45.0,0.0,1344.0,2023.0,223.0,5.0,9.0,42.6,41.6,44.3,27303.0,17757.0,497.0,59900.0,,,,
5712,"CORDOVA, SC",GTECH,"SAVANNAH, GA",92.8904851307009,1,CORDOVA,33.422422,-80.915021,113 mi,SC,6741.0,1 hour 52 mins,32.0835,-81.0998,3826.0,2427.0,1371.0,0.0,0.0,181.0,71.0,793.0,109.0,284.0,284.0,54.0,9.0,1.0,738.0,1506.0,67.0,0.0,2.0,37.4,39.0,37.3,33306.0,13913.0,577.0,81900.0,,,,
5725,"CORNELIA, GA",GTECH,"ATLANTA, GA",68.5831792813415,1,CORNELIA,34.512602,-83.592206,73.0 mi,GA,5614.0,1 hour 34 mins,33.7756178,-84.396285,10591.0,8730.0,442.0,36.0,285.0,2706.0,219.0,1621.0,600.0,392.0,590.0,283.0,81.0,67.0,2771.0,4294.0,365.0,48.0,0.0,35.0,35.1,34.8,35503.0,17514.0,624.0,130400.0,1.14,23.07,0.023,0.59
5810,"COTTAGEVILLE, SC",GTECH,"SAVANNAH, GA",71.579085049814,1,COTTAGEVILLE,32.972972,-80.466445,82.4 mi,SC,5171.0,1 hour 26 mins,32.0835,-81.0998,3916.0,2889.0,935.0,72.0,3.0,85.0,10.0,1048.0,191.0,404.0,110.0,126.0,0.0,0.0,593.0,1993.0,185.0,10.0,33.0,40.8,40.7,40.8,29417.0,19323.0,697.0,82200.0,,,,
5818,"COTTONDALE, AL",GTECH,"ATLANTA, GA",177.944616667776,1,COTTONDALE,33.163776,-87.389459,196 mi,AL,10710.0,2 hours 59 mins,33.7756178,-84.396285,11373.0,9037.0,2013.0,0.0,0.0,478.0,68.0,2157.0,366.0,597.0,780.0,231.0,24.0,78.0,2025.0,5483.0,272.0,219.0,59.0,39.0,40.5,37.5,46944.0,21418.0,748.0,124500.0,0.23,14.8,0.054,0.18
5823,"COTTONWOOD, AL",GTECH,"ATLANTA, GA",195.407405666783,1,COTTONWOOD,31.049925,-85.319153,232 mi,AL,13551.0,3 hours 46 mins,33.7756178,-84.396285,3837.0,3110.0,638.0,21.0,5.0,23.0,32.0,1036.0,164.0,143.0,165.0,85.0,10.0,7.0,837.0,1724.0,148.0,16.0,0.0,43.7,43.5,44.0,36716.0,19690.0,582.0,75600.0,,,,
5876,"COVINGTON, GA",GTECH,"ATLANTA, GA",33.8216391442367,1,COVINGTON,33.5487475,-83.8759025,41.2 mi,GA,3480.0,58 mins,33.7756178,-84.396285,90074.0,45975.0,40267.0,360.0,819.0,4586.0,598.0,14460.0,3306.0,4443.0,7289.0,2802.0,503.0,358.0,15508.0,43344.0,5079.0,1216.0,407.0,35.35,32.9,37.3,47714.5,21299.0,950.0,116900.0,18.65,13.39,0.044,10.65
5892,"COWARTS, AL",GTECH,"ATLANTA, GA",184.427974229576,1,COWARTS,31.21084,-85.29923,211 mi,AL,12591.0,3 hours 30 mins,33.7756178,-84.396285,1726.0,1495.0,133.0,0.0,9.0,98.0,25.0,416.0,61.0,81.0,116.0,35.0,0.0,13.0,248.0,836.0,73.0,20.0,14.0,36.0,34.9,36.9,42069.0,18636.0,794.0,88800.0,,,,
5906,"COY, AL",GTECH,"ATLANTA, GA",221.008913437165,1,COY,31.869694,-87.451616,,AL,,,33.7756178,-84.396285,423.0,35.0,388.0,0.0,0.0,0.0,28.0,76.0,4.0,28.0,0.0,0.0,0.0,0.0,195.0,111.0,25.0,0.0,0.0,36.4,16.9,49.5,14286.0,7577.0,,75800.0,,,,
5920,"CRAGFORD, AL",GTECH,"ATLANTA, GA",87.6952244165943,1,CRAGFORD,33.168154,-85.73044,115 mi,AL,7732.0,2 hours 9 mins,33.7756178,-84.396285,794.0,794.0,0.0,0.0,0.0,0.0,0.0,200.0,5.0,37.0,21.0,0.0,1.0,0.0,58.0,441.0,0.0,0.0,0.0,38.2,30.8,47.3,37167.0,18039.0,,58600.0,,,,
5936,"CRANDALL, GA",GTECH,"ATLANTA, GA",80.986290594211,1,CRANDALL,34.921047,-84.711807,98.8 mi,GA,7553.0,2 hours 6 mins,33.7756178,-84.396285,3391.0,3178.0,13.0,5.0,51.0,177.0,25.0,521.0,342.0,116.0,102.0,36.0,8.0,24.0,849.0,1570.0,223.0,20.0,0.0,43.0,43.9,42.7,33887.0,16951.0,626.0,79000.0,,,,
5957,"CRAWFORD, GA",GTECH,"ATLANTA, GA",72.4541070981147,1,CRAWFORD,33.913366,-83.147279,93.2 mi,GA,6995.0,1 hour 57 mins,33.7756178,-84.396285,2347.0,1441.0,691.0,44.0,3.0,37.0,25.0,578.0,123.0,43.0,48.0,77.0,46.0,12.0,263.0,973.0,55.0,2.0,11.0,45.1,40.8,48.1,50577.0,20827.0,534.0,132500.0,,,,
5969,"CRAWFORDVILLE, GA",GTECH,"ATLANTA, GA",88.9106132084725,1,CRAWFORDVILLE,33.559319,-82.875272,97.3 mi,GA,5834.0,1 hour 37 mins,33.7756178,-84.396285,1828.0,715.0,1094.0,0.0,9.0,38.0,40.0,507.0,81.0,65.0,80.0,38.0,5.0,5.0,546.0,686.0,86.0,0.0,0.0,47.4,44.5,49.1,26250.0,14278.0,526.0,70600.0,,,,
5981,"CREOLA, AL",GTECH,"ATLANTA, GA",290.546491242327,1,CREOLA,30.890103,-88.018704,,AL,,,33.7756178,-84.396285,1874.0,1626.0,160.0,20.0,7.0,18.0,0.0,391.0,59.0,111.0,163.0,17.0,11.0,0.0,334.0,791.0,35.0,16.0,17.0,41.4,42.1,40.9,49881.0,22155.0,849.0,122500.0,,,,
5991,"CRESCENT, GA",GTECH,"SAVANNAH, GA",42.2122300495436,1,CRESCENT,31.510772,-81.354554,56.0 mi,GA,3468.0,58 mins,32.0835,-81.0998,0.0,0.0,0.0,0.0,0.0,0.0,0.0,0.0,0.0,0.0,0.0,0.0,0.0,0.0,0.0,0.0,0.0,0.0,0.0,,,,,,,,,,,
6065,"CROPWELL, AL",GTECH,"ATLANTA, GA",113.505196744939,1,CROPWELL,33.502019,-86.337925,124 mi,AL,7546.0,2 hours 6 mins,33.7756178,-84.396285,3774.0,3410.0,199.0,0.0,26.0,106.0,80.0,935.0,228.0,260.0,125.0,164.0,32.0,72.0,388.0,1813.0,92.0,81.0,9.0,52.4,52.1,54.1,48074.0,28502.0,616.0,165400.0,,,,
6083,"CROSS, SC",GTECH,"SAVANNAH, GA",100.162579707263,1,CROSS,33.315358,-80.18725,128 mi,SC,7541.0,2 hours 6 mins,32.0835,-81.0998,4533.0,2254.0,2194.0,13.0,0.0,97.0,51.0,1280.0,102.0,267.0,255.0,164.0,55.0,40.0,954.0,2144.0,401.0,140.0,0.0,47.8,48.6,47.4,35818.0,19170.0,772.0,81300.0,,,,
6088,"CROSSVILLE, AL",GTECH,"ATLANTA, GA",100.905889771451,1,CROSSVILLE,34.303881,-86.036441,130 mi,AL,9298.0,2 hours 35 mins,33.7756178,-84.396285,10237.0,7282.0,21.0,65.0,20.0,3387.0,175.0,1592.0,528.0,325.0,477.0,232.0,3.0,18.0,3014.0,3651.0,125.0,6.0,19.0,30.7,27.8,34.6,31976.0,13065.0,588.0,75100.0,,,,
6144,"CUBA, AL",GTECH,"ATLANTA, GA",247.258795843959,1,CUBA,32.426384,-88.346704,,AL,,,33.7756178,-84.396285,2058.0,421.0,1630.0,0.0,3.0,0.0,22.0,785.0,21.0,31.0,115.0,29.0,6.0,5.0,693.0,1051.0,242.0,15.0,4.0,47.4,50.9,44.2,22778.0,15470.0,639.0,77800.0,,,,
6166,"CULLODEN, GA",GTECH,"ATLANTA, GA",66.3378526104334,1,CULLODEN,32.842251,-84.115961,81.4 mi,GA,5564.0,1 hour 33 mins,33.7756178,-84.396285,1503.0,745.0,758.0,0.0,0.0,0.0,23.0,280.0,92.0,101.0,51.0,47.0,8.0,10.0,475.0,921.0,158.0,0.0,1.0,41.2,35.0,41.6,34531.0,18378.0,,54200.0,,,,
6170,"CULLOWHEE, NC",GTECH,"ATLANTA, GA",131.734149164845,1,CULLOWHEE,35.314207,-83.026128,164 mi,NC,11692.0,3 hours 15 mins,33.7756178,-84.396285,10151.0,9099.0,496.0,66.0,69.0,729.0,66.0,798.0,201.0,291.0,782.0,505.0,114.0,141.0,2508.0,4387.0,234.0,34.0,20.0,21.9,22.9,21.2,24507.0,14203.0,586.0,208600.0,1.15,14.8,0.019,0.32
6193,"CUMMING, GA",GTECH,"ATLANTA, GA",34.628054607231,1,CUMMING,34.2360083333333,-84.1547726666667,39.2 mi,GA,5416.0,1 hour 30 mins,33.7756178,-84.396285,142517.0,124175.0,3649.0,381.0,8829.0,13691.0,806.0,16432.0,2425.0,6905.0,27605.0,9399.0,1603.0,880.0,9949.0,71560.0,4547.0,4986.0,1253.0,37.7,37.1666666666667,38.4,84772.0,33118.3333333333,1139.0,248300.0,34.35,15.02,0.034,17.36
6226,"CUSSETA, AL",GTECH,"ATLANTA, GA",87.2812398226909,1,CUSSETA,32.757181,-85.292494,95.1 mi,AL,5594.0,1 hour 33 mins,33.7756178,-84.396285,2437.0,1931.0,505.0,0.0,1.0,0.0,104.0,347.0,114.0,125.0,216.0,72.0,2.0,2.0,738.0,1066.0,96.0,0.0,0.0,43.3,44.7,35.2,27063.0,22544.0,718.0,87400.0,,,,
6227,"CUSSETA, GA",GTECH,"ATLANTA, GA",106.122566541337,1,CUSSETA,32.263056,-84.739509,135 mi,GA,7486.0,2 hours 5 mins,33.7756178,-84.396285,2703.0,1624.0,671.0,31.0,43.0,33.0,9.0,576.0,120.0,261.0,109.0,11.0,11.0,55.0,540.0,1259.0,217.0,19.0,0.0,44.2,38.8,47.0,31237.0,19125.0,635.0,62900.0,1.36,11.88,0.035,0.56
6240,"CUTHBERT, GA",GTECH,"ATLANTA, GA",139.118858710328,1,CUTHBERT,31.780932,-84.764867,164 mi,GA,8992.0,2 hours 30 mins,33.7756178,-84.396285,5329.0,1428.0,3670.0,0.0,152.0,90.0,53.0,1202.0,124.0,204.0,260.0,192.0,39.0,37.0,1674.0,2094.0,237.0,0.0,10.0,39.4,33.6,44.5,27130.0,29007.0,602.0,57100.0,0.45,11.6,0.071,0.36
6271,"DACULA, GA",GTECH,"ATLANTA, GA",32.5298527111998,1,DACULA,33.97561,-83.883747,37.4 mi,GA,4162.0,1 hour 9 mins,33.7756178,-84.396285,45624.0,33323.0,7496.0,665.0,1493.0,8710.0,159.0,6031.0,891.0,2087.0,6468.0,2620.0,596.0,209.0,4294.0,22266.0,1443.0,597.0,355.0,35.6,36.1,35.2,84446.0,27999.0,1624.0,190500.0,14.33,15.16,0.034,7.22
6273,"DADEVILLE, AL",GTECH,"ATLANTA, GA",103.264516411643,1,DADEVILLE,32.816523,-85.76722,125 mi,AL,7861.0,2 hours 11 mins,33.7756178,-84.396285,7921.0,6458.0,1386.0,54.0,0.0,111.0,24.0,1666.0,392.0,482.0,916.0,525.0,58.0,74.0,1246.0,3335.0,295.0,77.0,0.0,50.8,49.7,51.5,49093.0,26512.0,600.0,136800.0,0.23,10.61,0.026,0.06
6287,"DAHLONEGA, GA",GTECH,"ATLANTA, GA",58.4300712228609,1,DAHLONEGA,34.56356,-84.020072,66.8 mi,GA,6893.0,1 hour 55 mins,33.7756178,-84.396285,25412.0,23763.0,700.0,197.0,86.0,1212.0,216.0,4018.0,855.0,979.0,3019.0,1121.0,399.0,185.0,4471.0,13124.0,858.0,594.0,44.0,37.3,36.6,38.3,42442.0,21907.0,847.0,168000.0,6.37,16.91,0.034,3.57
6292,"DAISY, GA",GTECH,"SAVANNAH, GA",43.0928676791036,1,DAISY,32.148806,-81.830641,48.4 mi,GA,3259.0,54 mins,32.0835,-81.0998,191.0,130.0,61.0,0.0,0.0,0.0,0.0,60.0,4.0,0.0,2.0,14.0,7.0,0.0,30.0,87.0,38.0,0.0,0.0,45.3,40.4,45.5,50833.0,49068.0,814.0,86100.0,,,,
6307,"DALEVILLE, AL",GTECH,"ATLANTA, GA",190.314778492286,1,DALEVILLE,31.257605,-85.735807,224 mi,AL,13560.0,3 hours 46 mins,33.7756178,-84.396285,8519.0,6059.0,1643.0,100.0,217.0,642.0,46.0,1392.0,430.0,808.0,536.0,203.0,10.0,20.0,1730.0,4117.0,413.0,30.0,24.0,37.4,38.0,35.8,47844.0,22011.0,626.0,99000.0,,,,
6315,"DALLAS, GA",GTECH,"ATLANTA, GA",29.1746205929893,1,DALLAS,33.93677,-84.8654475,37.7 mi,GA,4376.0,1 hour 13 mins,33.7756178,-84.396285,84751.0,67140.0,13792.0,238.0,509.0,5539.0,496.0,15918.0,3355.0,3945.0,7860.0,3158.0,1059.0,232.0,10875.0,44478.0,3723.0,1363.0,440.0,34.7,33.3,35.6,60887.0,24704.0,985.5,138950.0,14.56,17.75,0.03,7.64
6328,"DALTON, GA",GTECH,"ATLANTA, GA",75.1610075641848,1,DALTON,34.76114,-84.958453,87.2 mi,GA,6372.0,1 hour 46 mins,33.7756178,-84.396285,81680.0,71250.0,3634.0,258.0,1396.0,32343.0,1699.0,10981.0,3000.0,2235.0,4155.0,1688.0,714.0,127.0,16317.0,40134.0,4371.0,498.0,100.0,33.7,32.25,35.25,39847.0,19987.0,667.5,125350.0,7.73,10.28,0.035,2.68
6343,"DAMASCUS, GA",GTECH,"ATLANTA, GA",171.908885611761,1,DAMASCUS,31.292866,-84.685044,202 mi,GA,11608.0,3 hours 13 mins,33.7756178,-84.396285,668.0,271.0,397.0,0.0,0.0,4.0,7.0,199.0,17.0,14.0,53.0,22.0,6.0,0.0,206.0,195.0,12.0,4.0,0.0,47.6,43.8,50.9,21033.0,14385.0,673.0,74100.0,,,,
6376,"DANIELSVILLE, GA",GTECH,"ATLANTA, GA",71.5449416943709,1,DANIELSVILLE,34.180903,-83.249172,83.1 mi,GA,6303.0,1 hour 45 mins,33.7756178,-84.396285,8792.0,8374.0,198.0,26.0,86.0,94.0,132.0,1887.0,476.0,380.0,360.0,355.0,113.0,26.0,1462.0,4207.0,453.0,61.0,27.0,39.6,38.8,40.1,43173.0,19470.0,721.0,121300.0,0.68,28.77,0.039,0.75
6392,"DANVILLE, GA",GTECH,"ATLANTA, GA",104.301546153614,1,DANVILLE,32.621094,-83.23222,118 mi,GA,6990.0,1 hour 57 mins,33.7756178,-84.396285,1700.0,1385.0,312.0,3.0,0.0,5.0,0.0,437.0,117.0,16.0,48.0,37.0,0.0,13.0,177.0,699.0,18.0,26.0,0.0,47.6,50.1,45.5,41146.0,20028.0,539.0,69500.0,,,,
6407,"DAPHNE, AL",GTECH,"ATLANTA, GA",297.828281050575,1,DAPHNE,30.611152,-87.859918,,AL,,,33.7756178,-84.396285,31420.0,25774.0,4683.0,0.0,471.0,1262.0,110.0,3790.0,533.0,1781.0,6147.0,1623.0,521.0,316.0,3040.0,17252.0,908.0,837.0,215.0,36.3,35.8,36.9,63312.0,29573.0,1002.0,179000.0,1.15,10.65,0.038,0.46
6415,"DARIEN, GA",GTECH,"SAVANNAH, GA",50.382438188514,1,DARIEN,31.396816,-81.393957,63.8 mi,GA,3791.0,1 hour 3 mins,32.0835,-81.0998,7509.0,4439.0,2734.0,25.0,29.0,184.0,67.0,1477.0,694.0,386.0,301.0,144.0,15.0,5.0,2270.0,3384.0,345.0,14.0,23.0,42.2,36.9,44.2,40272.0,21781.0,598.0,112400.0,0.45,4.16,0.055,0.1
6438,"DAUFUSKIE ISLAND, SC",GTECH,"SAVANNAH, GA",14.5420348221358,1,DAUFUSKIE ISLAND,32.122105,-80.856036,,SC,,,32.0835,-81.0998,599.0,591.0,0.0,8.0,0.0,0.0,0.0,33.0,16.0,10.0,122.0,68.0,19.0,10.0,223.0,203.0,45.0,0.0,0.0,39.1,28.6,62.8,85583.0,57073.0,,395600.0,,,,
6439,"DAUPHIN ISLAND, AL",GTECH,"ATLANTA, GA",332.091122399663,1,DAUPHIN ISLAND,30.2355,-88.236219,,AL,,,33.7756178,-84.396285,1319.0,1252.0,9.0,14.0,4.0,37.0,11.0,240.0,31.0,73.0,217.0,87.0,11.0,29.0,46.0,595.0,36.0,43.0,20.0,50.7,52.9,49.3,63594.0,34281.0,1082.0,197900.0,0.23,7.1,0.04,0.07
6469,"DAVISBORO, GA",GTECH,"SAVANNAH, GA",108.373742815724,1,DAVISBORO,32.977092,-82.627586,132 mi,GA,7775.0,2 hours 10 mins,32.0835,-81.0998,2527.0,1106.0,1375.0,0.0,9.0,64.0,18.0,568.0,411.0,68.0,150.0,33.0,0.0,0.0,222.0,499.0,52.0,8.0,11.0,40.5,38.4,52.1,40477.0,10386.0,569.0,75300.0,,,,
6472,"DAVISTON, AL",GTECH,"ATLANTA, GA",90.8080416519495,1,DAVISTON,33.046308,-85.704818,108 mi,AL,8415.0,2 hours 20 mins,33.7756178,-84.396285,1900.0,1611.0,267.0,0.0,0.0,32.0,43.0,484.0,71.0,81.0,126.0,56.0,6.0,2.0,308.0,932.0,79.0,2.0,9.0,42.6,41.0,43.6,45370.0,21070.0,522.0,91400.0,,,,
6480,"DAWSON, AL",GTECH,"ATLANTA, GA",96.6019973209758,1,DAWSON,34.359787,-85.9272,127 mi,AL,9089.0,2 hours 31 mins,33.7756178,-84.396285,1852.0,1827.0,0.0,25.0,0.0,0.0,0.0,386.0,30.0,100.0,82.0,70.0,26.0,0.0,278.0,647.0,0.0,49.0,0.0,51.1,49.8,52.1,26373.0,15207.0,410.0,113100.0,,,,
6481,"DAWSON, GA",GTECH,"ATLANTA, GA",138.852152508443,1,DAWSON,31.760949,-84.437475,171 mi,GA,9538.0,2 hours 39 mins,33.7756178,-84.396285,8256.0,2854.0,5284.0,0.0,43.0,204.0,117.0,1496.0,250.0,428.0,316.0,135.0,60.0,29.0,2999.0,3405.0,491.0,29.0,20.0,39.7,37.2,41.5,27857.0,16028.0,589.0,84100.0,,,,
6490,"DAWSONVILLE, GA",GTECH,"ATLANTA, GA",47.4325124626517,1,DAWSONVILLE,34.4311,-84.144329,72.6 mi,GA,6081.0,1 hour 41 mins,33.7756178,-84.396285,28773.0,27425.0,126.0,99.0,290.0,1180.0,355.0,3921.0,1600.0,1384.0,3707.0,1208.0,225.0,65.0,4298.0,13611.0,1428.0,439.0,165.0,40.5,40.0,40.9,56721.0,27478.0,965.0,183200.0,4.09,13.85,0.042,2.32
6538,"DE SOTO, GA",GTECH,"ATLANTA, GA",130.812409512928,1,DE SOTO,31.908396,-83.991153,158 mi,GA,9136.0,2 hours 32 mins,33.7756178,-84.396285,496.0,105.0,358.0,0.0,0.0,51.0,5.0,125.0,7.0,14.0,12.0,13.0,0.0,0.0,138.0,166.0,0.0,0.0,0.0,33.3,48.0,26.9,32212.0,12697.0,796.0,83100.0,,,,
6562,"DEARING, GA",GTECH,"ATLANTA, GA",118.728542379244,1,DEARING,33.384114,-82.391923,131 mi,GA,7608.0,2 hours 7 mins,33.7756178,-84.396285,3939.0,2933.0,820.0,0.0,2.0,247.0,31.0,1042.0,172.0,231.0,151.0,62.0,0.0,3.0,817.0,1793.0,124.0,50.0,11.0,43.2,43.0,44.3,43423.0,23536.0,580.0,96500.0,0.23,1.15,0.081,0.02
6566,"DEATSVILLE, AL",GTECH,"ATLANTA, GA",140.907694993355,1,DEATSVILLE,32.623499,-86.405578,188 mi,AL,10228.0,2 hours 50 mins,33.7756178,-84.396285,11709.0,10973.0,517.0,39.0,25.0,105.0,18.0,2317.0,566.0,690.0,950.0,337.0,14.0,3.0,979.0,5716.0,306.0,192.0,82.0,39.3,39.5,39.0,55951.0,26558.0,723.0,168800.0,,,,
6572,"DECATUR, GA",GTECH,"ATLANTA, GA",8.17681788759162,1,DECATUR,33.7479182,-84.2581658,15.7 mi,GA,1889.0,31 mins,33.7756178,-84.396285,172161.0,48236.0,110658.0,188.0,6595.0,5677.0,1322.0,24563.0,4098.0,7207.0,23053.0,11717.0,3561.0,3371.0,35460.0,88222.0,11598.0,3146.0,2418.0,36.02,34.32,37.74,51224.0,27628.0,949.8,169880.0,41.85,25.3,0.035,36.53
6611,"DEER PARK, AL",GTECH,"ATLANTA, GA",282.341074679252,1,DEER PARK,31.275361,-88.228787,,AL,,,33.7756178,-84.396285,223.0,210.0,1.0,11.0,0.0,1.0,0.0,34.0,44.0,16.0,18.0,0.0,8.0,0.0,32.0,76.0,1.0,0.0,0.0,46.0,55.5,28.8,33750.0,22030.0,,77000.0,,,,
6709,"DELTA, AL",GTECH,"ATLANTA, GA",78.8832063284992,1,DELTA,33.477734,-85.717338,89.9 mi,AL,5686.0,1 hour 35 mins,33.7756178,-84.396285,1378.0,1302.0,13.0,0.0,0.0,56.0,0.0,247.0,73.0,37.0,27.0,48.0,14.0,15.0,295.0,581.0,35.0,0.0,0.0,51.9,57.0,51.5,42462.0,28381.0,483.0,114600.0,,,,
6725,"DEMOPOLIS, AL",GTECH,"ATLANTA, GA",224.129227273714,1,DEMOPOLIS,32.429314,-87.914179,,AL,,,33.7756178,-84.396285,8292.0,3525.0,4500.0,0.0,27.0,294.0,64.0,1932.0,134.0,313.0,662.0,313.0,66.0,25.0,2465.0,3131.0,366.0,55.0,29.0,37.6,41.9,36.8,29813.0,22263.0,480.0,128600.0,,,,
6726,"DEMOREST, GA",GTECH,"ATLANTA, GA",72.390553591185,1,DEMOREST,34.573655,-83.574769,78.9 mi,GA,5953.0,1 hour 39 mins,33.7756178,-84.396285,7388.0,6745.0,113.0,16.0,288.0,384.0,61.0,1675.0,307.0,247.0,442.0,258.0,39.0,43.0,908.0,3595.0,283.0,62.0,67.0,35.2,33.7,38.6,48482.0,18352.0,717.0,138400.0,0.45,5.73,0.074,0.19
6741,"DENMARK, SC",GTECH,"SAVANNAH, GA",83.738191219745,1,DENMARK,33.297671,-81.158698,91.4 mi,SC,6593.0,1 hour 50 mins,32.0835,-81.0998,5358.0,759.0,4522.0,0.0,23.0,2.0,87.0,707.0,0.0,415.0,439.0,76.0,14.0,0.0,1963.0,1920.0,345.0,66.0,19.0,35.6,30.1,39.8,21026.0,17110.0,447.0,61200.0,0.23,3.17,0.03,0.02
6757,"DENTON, GA",GTECH,"SAVANNAH, GA",100.64100370117,1,DENTON,31.72207,-82.758822,119 mi,GA,8361.0,2 hours 19 mins,32.0835,-81.0998,911.0,819.0,92.0,0.0,0.0,19.0,8.0,232.0,84.0,26.0,2.0,15.0,16.0,0.0,252.0,328.0,13.0,0.0,0.0,34.3,34.2,35.4,33224.0,14842.0,292.0,64500.0,,,,
6849,"DEWY ROSE, GA",GTECH,"ATLANTA, GA",88.1850237519972,1,DEWY ROSE,34.195694,-82.945483,104 mi,GA,7316.0,2 hours 2 mins,33.7756178,-84.396285,1652.0,1306.0,213.0,0.0,29.0,175.0,66.0,511.0,58.0,34.0,87.0,51.0,0.0,0.0,219.0,793.0,40.0,0.0,0.0,48.3,49.7,45.8,43177.0,22466.0,550.0,82200.0,,,,
6851,"DEXTER, GA",GTECH,"SAVANNAH, GA",116.653823325127,1,DEXTER,32.424244,-83.051342,126 mi,GA,6627.0,1 hour 50 mins,32.0835,-81.0998,2288.0,1974.0,297.0,0.0,6.0,11.0,3.0,591.0,108.0,63.0,136.0,52.0,56.0,5.0,564.0,766.0,44.0,31.0,6.0,38.5,38.1,39.5,35469.0,17370.0,594.0,90400.0,0.23,38.22,0.039,0.33
6885,"DICKINSON, AL",GTECH,"ATLANTA, GA",233.802274383486,1,DICKINSON,31.785367,-87.649528,,AL,,,33.7756178,-84.396285,497.0,409.0,88.0,0.0,0.0,0.0,0.0,161.0,38.0,5.0,44.0,0.0,0.0,0.0,20.0,316.0,27.0,0.0,0.0,49.6,44.6,58.4,37029.0,33143.0,,59500.0,,,,
6900,"DILLARD, GA",GTECH,"ATLANTA, GA",103.097990998679,1,DILLARD,34.976125,-83.320199,119 mi,GA,8331.0,2 hours 19 mins,33.7756178,-84.396285,1585.0,1421.0,0.0,0.0,33.0,310.0,9.0,284.0,64.0,143.0,332.0,117.0,13.0,7.0,347.0,640.0,29.0,32.0,0.0,48.1,48.3,45.9,37250.0,29832.0,545.0,217300.0,0.68,12.46,0.03,0.25
6911,"DILLSBORO, NC",GTECH,"ATLANTA, GA",127.5180927602,1,DILLSBORO,35.366645,-83.255082,146 mi,NC,9462.0,2 hours 38 mins,33.7756178,-84.396285,32.0,32.0,0.0,0.0,0.0,5.0,0.0,0.0,0.0,4.0,16.0,7.0,0.0,0.0,13.0,32.0,8.0,0.0,0.0,45.8,45.3,,,36109.0,,,,,,
6944,"DIXIE, GA",GTECH,"SAVANNAH, GA",176.085056378713,1,DIXIE,30.816844,-83.689394,211 mi,GA,13640.0,3 hours 47 mins,32.0835,-81.0998,557.0,321.0,208.0,14.0,5.0,4.0,4.0,106.0,9.0,7.0,61.0,11.0,0.0,0.0,164.0,166.0,23.0,0.0,0.0,47.3,56.6,42.5,32443.0,17360.0,713.0,121600.0,,,,
6958,"DIXONS MILLS, AL",GTECH,"ATLANTA, GA",229.250403778116,1,DIXONS MILLS,32.060282,-87.776198,,AL,,,33.7756178,-84.396285,1359.0,340.0,1019.0,0.0,0.0,0.0,10.0,387.0,19.0,61.0,12.0,35.0,0.0,0.0,415.0,441.0,60.0,0.0,0.0,40.3,35.5,42.1,27318.0,15202.0,,49400.0,,,,
6963,"DOCENA, AL",GTECH,"ATLANTA, GA",148.025780873635,1,DOCENA,33.55775,-86.951726,160 mi,AL,9298.0,2 hours 35 mins,33.7756178,-84.396285,344.0,166.0,178.0,0.0,0.0,0.0,8.0,83.0,40.0,0.0,0.0,0.0,0.0,0.0,149.0,117.0,18.0,0.0,0.0,59.4,60.2,55.3,,16902.0,,34400.0,,,,
6982,"DOERUN, GA",GTECH,"ATLANTA, GA",170.205860375166,1,DOERUN,31.341346,-83.901613,191 mi,GA,10824.0,3 hours 0 mins,33.7756178,-84.396285,2802.0,2156.0,488.0,29.0,2.0,114.0,33.0,480.0,114.0,151.0,249.0,64.0,6.0,0.0,847.0,1121.0,139.0,10.0,0.0,35.1,38.6,31.4,33718.0,17036.0,589.0,76000.0,,,,
6989,"DOLOMITE, AL",GTECH,"ATLANTA, GA",149.054080999297,1,DOLOMITE,33.472006,-86.95594,162 mi,AL,9084.0,2 hours 31 mins,33.7756178,-84.396285,1357.0,64.0,1287.0,0.0,0.0,0.0,0.0,234.0,10.0,119.0,109.0,10.0,5.0,12.0,327.0,662.0,253.0,0.0,0.0,38.1,36.4,47.8,40741.0,19024.0,1257.0,74600.0,,,,
7003,"DONALSONVILLE, GA",GTECH,"ATLANTA, GA",196.754427276499,1,DONALSONVILLE,30.951468,-84.892838,226 mi,GA,13110.0,3 hours 39 mins,33.7756178,-84.396285,7939.0,5005.0,2732.0,0.0,48.0,175.0,127.0,1803.0,525.0,232.0,525.0,215.0,71.0,30.0,1456.0,2991.0,285.0,11.0,15.0,45.3,44.7,46.1,35813.0,20607.0,660.0,76000.0,,,,
7024,"DORA, AL",GTECH,"ATLANTA, GA",150.529623686563,1,DORA,33.72492,-87.010252,173 mi,AL,9527.0,2 hours 39 mins,33.7756178,-84.396285,7482.0,7150.0,195.0,16.0,16.0,14.0,38.0,1586.0,188.0,560.0,365.0,324.0,77.0,0.0,909.0,3222.0,271.0,134.0,6.0,42.8,42.0,43.5,44018.0,24459.0,627.0,124400.0,,,,
7033,"DORCHESTER, SC",GTECH,"SAVANNAH, GA",82.5710191178805,1,DORCHESTER,33.139994,-80.431756,99.1 mi,SC,5811.0,1 hour 37 mins,32.0835,-81.0998,2302.0,1533.0,769.0,0.0,0.0,96.0,44.0,676.0,21.0,207.0,66.0,13.0,0.0,0.0,408.0,1110.0,167.0,23.0,24.0,43.0,42.0,47.2,35417.0,20979.0,818.0,111500.0,,,,
7051,"DOTHAN, AL",GTECH,"ATLANTA, GA",187.253269325017,1,DOTHAN,31.203735,-85.43187,213 mi,AL,12881.0,3 hours 35 mins,33.7756178,-84.396285,83176.0,55209.0,24674.0,271.0,745.0,2655.0,838.0,14269.0,3182.0,4834.0,8141.0,3110.0,951.0,461.0,15224.0,39226.0,3355.0,787.0,178.0,38.3333333333333,36.7666666666667,39.5666666666667,46887.6666666667,26581.6666666667,728.0,139433.333333333,4.83,8.71,0.058,2.4
7060,"DOUGLAS, GA",GTECH,"SAVANNAH, GA",110.188572446834,1,DOUGLAS,31.509862,-82.847768,133 mi,GA,9160.0,2 hours 33 mins,32.0835,-81.0998,28147.0,17370.0,8931.0,68.0,246.0,3253.0,247.0,5307.0,944.0,1137.0,1619.0,738.0,251.0,60.0,7673.0,11501.0,999.0,48.0,30.0,34.05,30.8,35.75,34906.5,18928.5,557.5,86150.0,0.91,4.59,0.028,0.11
7071,"DOUGLASVILLE, GA",GTECH,"ATLANTA, GA",21.1171593582975,1,DOUGLASVILLE,33.724019,-84.757836,26.9 mi,GA,2800.0,47 mins,33.7756178,-84.396285,106849.0,57574.0,42729.0,110.0,1877.0,8050.0,682.0,16936.0,3387.0,5127.0,10622.0,4485.0,1245.0,397.0,17261.0,53244.0,5424.0,1341.0,571.0,35.35,33.55,36.75,54176.0,23041.5,956.0,125000.0,22.52,16.14,0.038,13.32
7124,"DOZIER, AL",GTECH,"ATLANTA, GA",195.536221359399,1,DOZIER,31.49547,-86.392802,235 mi,AL,13447.0,3 hours 44 mins,33.7756178,-84.396285,1870.0,1658.0,191.0,12.0,0.0,7.0,21.0,427.0,93.0,102.0,117.0,67.0,0.0,5.0,337.0,911.0,133.0,8.0,20.0,44.6,44.7,44.6,34398.0,20921.0,508.0,78900.0,,,,
7177,"DRY BRANCH, GA",GTECH,"ATLANTA, GA",91.0774500249659,1,DRY BRANCH,32.690507,-83.498578,108 mi,GA,6354.0,1 hour 46 mins,33.7756178,-84.396285,2271.0,1300.0,869.0,8.0,0.0,0.0,0.0,508.0,82.0,49.0,204.0,8.0,0.0,0.0,639.0,717.0,77.0,3.0,0.0,45.5,47.0,45.2,30071.0,18799.0,725.0,59000.0,,,,
7196,"DU PONT, GA",GTECH,"SAVANNAH, GA",130.720830600949,1,DU PONT,30.950818,-82.876732,162 mi,GA,10555.0,2 hours 56 mins,32.0835,-81.0998,481.0,142.0,111.0,6.0,0.0,191.0,0.0,84.0,9.0,4.0,12.0,13.0,4.0,0.0,261.0,132.0,57.0,0.0,0.0,25.9,28.7,25.3,14453.0,8645.0,380.0,40500.0,,,,
7204,"DUBLIN, GA",GTECH,"SAVANNAH, GA",111.521539060233,1,DUBLIN,32.493427,-82.943054,118 mi,GA,6404.0,1 hour 47 mins,32.0835,-81.0998,27849.0,14788.0,12284.0,29.0,490.0,631.0,230.0,6551.0,1011.0,1572.0,1651.0,1313.0,473.0,101.0,7983.0,10664.0,766.0,206.0,27.0,38.0,36.5,40.2,31981.0,20489.0,562.0,100300.0,0.45,10.59,0.026,0.12
7225,"DUDLEY, GA",GTECH,"SAVANNAH, GA",121.661767439446,1,DUDLEY,32.51154,-83.116631,126 mi,GA,6421.0,1 hour 47 mins,32.0835,-81.0998,1568.0,1153.0,328.0,0.0,0.0,53.0,42.0,327.0,37.0,119.0,82.0,59.0,15.0,22.0,259.0,763.0,31.0,2.0,0.0,40.1,39.3,40.6,56779.0,25656.0,544.0,118600.0,,,,
7230,"DUE WEST, SC",GTECH,"ATLANTA, GA",118.611109545223,1,DUE WEST,34.303669,-82.428794,139 mi,SC,9171.0,2 hours 33 mins,33.7756178,-84.396285,1697.0,1373.0,270.0,12.0,0.0,42.0,10.0,203.0,48.0,64.0,108.0,69.0,0.0,50.0,174.0,584.0,30.0,12.0,0.0,23.1,23.2,23.1,47788.0,14755.0,638.0,141700.0,,,,
7245,"DULUTH, GA",GTECH,"ATLANTA, GA",21.1521615796718,1,DULUTH,34.000217,-84.145509,25.0 mi,GA,3524.0,59 mins,33.7756178,-84.396285,113493.0,50796.0,23758.0,532.0,28925.0,17056.0,629.0,12868.0,1629.0,7069.0,21446.0,9451.0,1776.0,1693.0,14025.0,61193.0,5412.0,4325.0,1659.0,36.7,36.55,36.8,73278.5,34257.5,1157.5,262450.0,17.74,16.47,0.031,8.88
7270,"DUNCANVILLE, AL",GTECH,"ATLANTA, GA",181.205261721819,1,DUNCANVILLE,33.063695,-87.41475,210 mi,AL,11806.0,3 hours 17 mins,33.7756178,-84.396285,2989.0,2537.0,362.0,22.0,0.0,22.0,74.0,764.0,171.0,135.0,158.0,55.0,0.0,0.0,445.0,1531.0,187.0,0.0,69.0,48.7,50.1,47.2,40611.0,21503.0,657.0,105600.0,,,,
7436,"EARLY BRANCH, SC",GTECH,"SAVANNAH, GA",44.4351806346054,1,EARLY BRANCH,32.718462,-80.967103,56.5 mi,SC,3542.0,59 mins,32.0835,-81.0998,1464.0,825.0,628.0,0.0,0.0,0.0,0.0,428.0,44.0,53.0,80.0,10.0,0.0,0.0,317.0,619.0,39.0,15.0,0.0,42.9,32.8,47.5,34487.0,16269.0,778.0,91700.0,0.23,12.6,0.047,0.13
7490,"EAST DUBLIN, GA",GTECH,"SAVANNAH, GA",105.441997360016,1,EAST DUBLIN,32.581117,-82.804219,113 mi,GA,6275.0,1 hour 45 mins,32.0835,-81.0998,9999.0,6732.0,3174.0,0.0,8.0,465.0,145.0,2521.0,465.0,283.0,286.0,81.0,24.0,28.0,2658.0,3711.0,206.0,28.0,13.0,37.2,37.2,37.2,27945.0,15577.0,622.0,52800.0,,,,
7609,"EASTABOGA, AL",GTECH,"ATLANTA, GA",93.1097149975294,1,EASTABOGA,33.581758,-85.995493,102 mi,AL,6351.0,1 hour 46 mins,33.7756178,-84.396285,4341.0,3510.0,434.0,0.0,0.0,354.0,0.0,715.0,338.0,171.0,127.0,111.0,0.0,0.0,754.0,1970.0,283.0,0.0,0.0,41.1,33.0,42.3,41102.0,18082.0,642.0,103400.0,,,,
7610,"EASTANOLLEE, GA",GTECH,"ATLANTA, GA",81.9255603187508,1,EASTANOLLEE,34.500986,-83.263844,91.6 mi,GA,6323.0,1 hour 45 mins,33.7756178,-84.396285,2666.0,2638.0,28.0,0.0,0.0,0.0,0.0,780.0,113.0,102.0,68.0,24.0,0.0,0.0,319.0,1071.0,184.0,17.0,0.0,41.4,41.6,39.6,44245.0,18840.0,685.0,104900.0,,,,
